,지역,상호,주소,상표,전화번호,셀프여부,고급휘발유,휘발유,경유,실내등유,lat,long
0,서울특별시,재건에너지 재정제2주유소 고속셀프지점,서울특별시 강동구  천호대로     ,현대오일뱅크,02-487-2030,Y,0,1709,1829,0,37.5377854,127.1265483
1,서울특별시,방아다리주유소,서울 강동구 동남로    ,SK에너지,02-442-5145,Y,0,1745,1865,1700,37.5551833,127.1565844
2,서울특별시,현대오일뱅크㈜직영 명일셀프주유소,서울 강동구 고덕로    ,현대오일뱅크,02-3428-1739,Y,2033,1751,1851,0,37.5547286,127.1364591
3,서울특별시,구천면주유소,서울 강동구 구천면로    ,현대오일뱅크,02-441-0536,N,0,1754,1855,0,37.5500883,127.1466717
4,서울특별시,대성석유(주)길동주유소,서울 강동구 천호대로,GS칼텍스,02-474-7222,N,1995,1776,1869,1800,37.5377854,127.1265483
5,서울특별시,(주)삼표에너지 고덕주유소,서울 강동구 고덕로   ,GS칼텍스,02-441-3327,Y,1998,1778,1878,1748,37.5547286,127.1364591
6,서울특별시,지에스칼텍스㈜ 동서울주유소,서울 강동구 천호대로     ,GS칼텍스,02-426-5372,Y,0,1783,1943,0,37.5377854,127.1265483
7,서울특별시,sk해뜨는주유소,서울 강동구  상일로    ,SK에너지,02-442-7801,Y,0,1785,1880,1700,37.553051,127.1723493
8,서울특별시,(주)소모에너지 신월주유소,서울 강동구 양재대로     ,GS칼텍스,02-6956-6674,N,1995,1795,1878,1600,37.5567979,127.1446472
9,서울특별시,주)지유에너지직영 오렌지주유소,서울 강동구 성안로    ,SK에너지,02-484-6165,N,0,1851,1931,1600,37.537929,127.135603
10,서울특별시,(주)퍼스트오일 코알라주유소,서울특별시 강동구  올림픽로    ,S-OIL,02-484-1162,Y,0,1858,1938,0,37.5538754,127.1282822
11,서울특별시,(주)소모에너지 성내주유소,서울 강동구 올림픽로    ,GS칼텍스,02-479-3838,Y,0,1868,1938,0,37.5538754,127.1282822
12,서울특별시,천호현대주유소,서울 강동구 천중로   ,현대오일뱅크,02-484-9323,N,0,1898,2043,0,37.540447,127.1505459
13,서울특별시,광성주유소,서울 강동구 올림픽로    ,S-OIL,02-470-5133,N,0,2028,2158,2000,37.5538754,127.1282822
14,서울특별시,풍한주유소,서울 동대문구 안암로,SK에너지,02-924-5189,N,0,1675,1805,0,37.5828337,127.029697
15,서울특별시,동서울고속주유소,서울 동대문구 한천로,SK에너지,02-969-1144,Y,1945,1675,1795,0,37.5698629,127.0644296
16,서울특별시,대성산업(주)동마장주유소,서울 동대문구 고산자로    ,GS칼텍스,02-966-5451,Y,1939,1675,1805,0,37.5781921,127.0383566
17,서울특별시,대성산업㈜청량리주유소,서울 동대문구 왕산로    ,GS칼텍스,02-966-9400,Y,0,1675,1805,0,37.5805669,127.0459512
18,서울특별시,(주)경동주유소,서울 동대문구 이문로    ,S-OIL,02-965-6006,Y,0,1675,1805,1600,37.5913753,127.0568599
19,서울특별시,삼영주유소,서울 동대문구 답십리로    ,SK에너지,02-2217-2017,N,0,1675,1795,0,37.57646,127.04673
20,서울특별시,열린주유소,서울 동대문구 한천로    ,S-OIL,02-2215-6543,N,0,1677,1797,0,37.5698629,127.0644296
21,서울특별시,(주)파랑에너지,서울 동대문구 망우로,GS칼텍스,02-2242-5145,Y,1945,1685,1825,1600,37.5882294,127.0538827
22,서울특별시,재정제2주유소,서울 동대문구 사가정로   ,현대오일뱅크,02-2249-6682,Y,0,1699,1839,0,37.5787297,127.0698176
23,서울특별시,재정주유소,서울 동대문구 전농로    ,현대오일뱅크,070-8256-4617,Y,1945,1699,1839,0,37.58088,127.05544
24,서울특별시,배봉로주유소,서울 동대문구 서울시립대로,현대오일뱅크,02-2242-0556,Y,0,1715,1855,0,37.5750243,127.0467517
25,서울특별시,(주)안국에너지 삼원셀프주유소,서울 동대문구 망우로   ,SK에너지,02-2244-1972,Y,0,1718,1848,1750,37.5882294,127.0538827
26,서울특별시,홍능주유소,서울 동대문구 홍릉로   ,S-OIL,02-966-9190,N,0,1727,1875,1650,37.5890748,127.0426696
27,서울특별시,삼미상사(주)장안킹셀프주유소,서울 동대문구  한천로    ,SK에너지,02-2242-7115,Y,0,1734,1865,0,37.5698629,127.0644296
28,서울특별시,현대오일뱅크㈜직영 스피드주유소,서울 동대문구 천호대로    ,현대오일뱅크,02-2216-5151,N,1998,1747,1865,0,37.5641045,127.0563794
29,서울특별시,오동나무주유소,서울 동대문구  한천로   ,S-OIL,02-2247-5132,N,0,1798,1898,1800,37.5698629,127.0644296
30,서울특별시,한영주유소 (한화),서울 동대문구 망우로   ,현대오일뱅크,02-2214-9890,N,0,1990,1990,0,37.5882294,127.0538827
31,경기도,안산주유소 강릉방향,경기 안산시 단원구 영동고속도로,SK에너지,031-403-5158,N,0,1662,1794,0,37.3505821,126.8067146
32,경기도,(주)동강석유 남안산IC주유소,경기 안산시 단원구 성곡로    ,S-OIL,031-494-1080,Y,0,1672,1799,0,37.3356823,126.7785001
33,경기도,안산주유소 인천방향,경기 안산시 단원구 영동고속도로,SK에너지,031-402-5157,N,0,1672,1799,0,37.3505821,126.8067146
34,경기도,(주)칠오 와동주유소,경기 안산시 단원구 순환로    ,S-OIL,031-413-5151,Y,0,1679,1789,0,37.3451542,126.8293261
35,경기도,지에스칼텍스(주)안산스타주유소,경기 안산시 단원구 달미로,GS칼텍스,031-414-5189,Y,1920,1689,1829,1659,37.3389666,126.813698
36,경기도,신안산주유소,경기 안산시 단원구 고잔로   ,SK에너지,031-486-2205,Y,0,1695,1835,0,37.3189813,126.8370065
37,경기도,(주)지티이엔알직영 서해주유소,경기 안산시 단원구 시흥대로   ,S-OIL,031-497-5148,N,0,1695,1835,0,37.3451966,126.7951297
38,경기도,현대오일뱅크㈜직영 안산공원셀프주유소,경기 안산시 단원구  광덕 로    ,현대오일뱅크,031-413-5051,Y,1999,1695,1825,0,0,0
39,경기도,대상주유소,경기 안산시 단원구 순환로    ,GS칼텍스,031-413-5189,N,0,1698,1838,1600,37.3451542,126.8293261
40,경기도,현대오일뱅크(주)직영 한양현대주유소,경기도 안산시 단원구  화정천서로    ,현대오일뱅크,031-413-5117,N,1929,1699,1839,1539,37.3196945,126.8208305
41,경기도,서안산주유소,경기 안산시 단원구 시흥대로,S-OIL,031-498-5181,N,0,1709,1839,0,37.3451966,126.7951297
42,경기도,대부그린주유소,경기 안산시 단원구 대부황금로    ,GS칼텍스,032-881-0055,N,0,1717,1857,1600,37.2911384,126.5784636
43,경기도,대지석유 선부주유소,경기도 안산시 단원구  선부로   ,S-OIL,031-402-5133,Y,0,1719,1849,0,37.3410162,126.8039068
44,경기도,현대오일뱅크㈜직영 안산중앙주유소,경기 안산시 단원구 화정로   ,현대오일뱅크,031-486-7547,N,0,1734,1855,1599,37.3314528,126.8200072
45,경기도,대부주유소,경기 안산시 단원구 대부황금로    ,SK에너지,032-885-5189,N,0,1736,1856,1600,37.2911384,126.5784636
46,경기도,작전주유소,경기 안산시 단원구 대부황금로    ,현대오일뱅크,032-882-5141,N,0,1765,1865,1600,37.2911384,126.5784636
47,경기도,초지스타주유소,경기 안산시 단원구 초지로    ,GS칼텍스,031-439-7451,Y,2149,1768,1897,0,37.2987193,126.8139737
48,경기도,신길중앙주유소,경기 안산시 단원구 삼일로   ,현대오일뱅크,031-493-1459,Y,0,1769,1899,1720,37.3352942,126.7827288
49,경기도,안산행복주유소,경기 안산시 단원구 시우로,자가상표,031-492-7019,Y,0,1775,1795,0,37.3006755,126.804979
50,경기도,동현주유소,경기 안산시 단원구 대선로,현대오일뱅크,032-888-9960,N,0,1778,1878,1600,37.2497853,126.5761707
51,경기도,삼원주유소,경기 안산시 단원구 목내로,GS칼텍스,031-491-0430,Y,0,1778,1868,0,37.3077099,126.7744513
52,경기도,케이비원대부도주유소,경기 안산시 단원구 대선로    ,SK에너지,032-888-5104,N,0,1778,1898,1600,37.2497853,126.5761707
53,경기도,(주)대지석유 산업주유소,경기 안산시 단원구 동산로   ,S-OIL,031-494-7355,Y,2196,1778,1878,1648,37.2976369,126.7846604
54,경기도,정진주유소,경기 안산시 단원구 대남로   ,현대오일뱅크,032-880-9874,N,0,1779,1879,1600,37.2151711,126.5692413
55,경기도,(주)세화주유소,경기 안산시 단원구 대부중앙로    ,S-OIL,032-886-3883,Y,0,1780,1879,1600,37.2419832,126.5869211
56,경기도,이마트24서비스 고잔주유소,경기 안산시 단원구 적금로    ,SK에너지,031-413-8076,Y,0,1798,1898,0,37.3195371,126.8260413
57,경기도,대성산업(주)안산공단주유소,경기 안산시 단원구 산단로,GS칼텍스,031-494-5133,N,0,1798,1898,1698,37.3438463,126.7950883
58,경기도,SK에너지(주)직영 새천년주유소,경기 안산시 단원구 정왕대로    ,SK에너지,031-494-5185,N,2097,1798,1898,1719,37.3351785,126.7555138
59,경기도,서안산IC주유소,경기 안산시 단원구 중앙대로    ,GS칼텍스,031-492-9380,N,0,1813,1976,1740,37.3176574,126.8155619
60,경기도,스마트허브주유소,경기 안산시 단원구 해봉로    ,GS칼텍스,031-492-7744,N,0,1815,1939,1740,37.3219981,126.7653989
61,경기도,현대오일뱅크㈜직영 동양주유소,경기 안산시 단원구 중앙대로    ,현대오일뱅크,031-494-3399,N,0,1817,1902,0,37.3176574,126.8155619
62,경기도,(주)이든 내주유소,경기 안산시 단원구 중앙대로,S-OIL,031-494-6811,N,2247,1818,1933,1730,37.3176574,126.8155619
63,경기도,(주)삼정주유소,경기 안산시 단원구 삼일로    ,현대오일뱅크,031-494-6270,Y,2266,1828,1939,1747,37.3352942,126.7827288
64,경기도,만해유업㈜ 만해주유소,경기 안산시 단원구 만해로   ,SK에너지,031-492-2500,Y,0,1847,1947,0,37.3281548,126.7509519
65,경기도,MTV스마트주유소,경기도 안산시 단원구 시화호수로   번길,GS칼텍스,031-491-5189,Y,0,1847,1977,1800,0,0
66,경기도,SK에너지(주)시화공단주유소,경기 안산시 단원구 번영로    ,SK에너지,031-498-0130,N,1998,1848,2048,1758,37.3231055,126.7399207
67,경기도,시화주유소,경기 안산시 단원구 대부황금로     ,현대오일뱅크,032-886-5755,N,0,1849,1949,0,37.2911384,126.5784636
68,서울특별시,지에스칼텍스(주) 대방주유소,서울 동작구 여의대방로,GS칼텍스,02-826-5145,N,1829,1669,1835,1650,37.5014098,126.9208774
69,서울특별시,창원이엔지주유소,서울 동작구 사당로   ,현대오일뱅크,02-825-5151,N,0,1708,1877,0,37.4953082,126.9566218
70,서울특별시,지에스칼텍스㈜직영 남성주유소,서울 동작구 동작대로    ,GS칼텍스,02-532-0606,Y,0,1714,1865,0,37.5045613,126.9803781
71,서울특별시,매일주유소,서울 동작구 상도로    ,S-OIL,02-817-4085,Y,0,1739,1939,1800,37.5006821,126.932255
72,서울특별시,현대오일뱅크㈜직영 신대방셀프주유소,서울 동작구 시흥대로    ,현대오일뱅크,02-832-7926,Y,1999,1739,1889,0,37.4858119,126.9040027
73,서울특별시,현대오일뱅크(주)직영 사당셀프주유소,서울 동작구 동작대로   ,현대오일뱅크,02-521-3618,Y,2169,1747,1899,0,37.5045613,126.9803781
74,서울특별시,현대오일뱅크(주)직영 동작주유소,서울 동작구 상도로    ,현대오일뱅크,02-817-9179,N,2049,1757,1909,0,37.5006821,126.932255
75,서울특별시,현대오일뱅크㈜직영 흑석동셀프주유소,서울 동작구 현충로    ,현대오일뱅크,02-815-0724,Y,1992,1772,1899,0,37.5022473,126.9775612
76,서울특별시,살피재주유소,서울 동작구 상도로,SK에너지,02-817-2559,N,0,1875,1985,0,37.5006821,126.932255
77,서울특별시,청원주유소,서울 마포구 월드컵북로    ,현대오일뱅크,02-325-5533,Y,2088,1698,1857,0,37.5589588,126.9174887
78,서울특별시,성산대교셀프주유소,서울 마포구 성산로,현대오일뱅크,02-323-0078,Y,0,1698,1857,1798,37.558405,126.8949685
79,서울특별시,마포시엠주유소,서울 마포구 월드컵북로  ,GS칼텍스,02-336-1687,N,0,1727,1857,0,37.5589588,126.9174887
80,서울특별시,성산주유소,서울 마포구 월드컵북로    ,SK에너지,02-373-3314,N,0,1727,1867,0,37.5589588,126.9174887
81,서울특별시,(주)안국에너지 망원동주유소,서울 마포구 월드컵로    ,SK에너지,02-334-0917,N,0,1758,1878,0,37.5596169,126.9069064
82,서울특별시,에스오일(주) 염리동주유소,서울 마포구 백범로    ,S-OIL,02-3272-5155,Y,0,1789,1899,0,37.5424849,126.9542078
83,서울특별시,에스에스오토셀프,서울 마포구 서강로   ,현대오일뱅크,02-336-5185,Y,2185,1789,1899,0,37.5552281,126.9372696
84,서울특별시,SK에너지 양지주유소,서울 마포구 마포대로   ,SK에너지,02-706-8955,N,2059,1799,1999,0,37.5403189,126.9471222
85,서울특별시,(주)만성상사 대흥주유소,서울 마포구 대흥로   ,SK에너지,02-3273-5151,N,2199,1819,1939,1781,37.5443405,126.9387171
86,서울특별시,용강주유소,서울 마포구 토정로,S-OIL,070-7795-4800,N,0,1829,1939,0,37.5453311,126.9195762
87,서울특별시,SK에너지(주) 안국주유소,서울 마포구 양화로,SK에너지,02-3144-1197,N,2089,1829,1999,0,37.5572088,126.9241038
88,서울특별시,마포주유소,서울 마포구 마포대로    ,S-OIL,02-701-3990,N,0,1999,2199,1899,37.5403189,126.9471222
89,서울특별시,중앙에너비스 동교지점,서울 서대문구 연희로   ,SK에너지,070-8707-4568,Y,2008,1705,1835,0,37.5809227,126.9361647
90,서울특별시,(주)창원이엔지 홍제지점,서울 서대문구 통일로    ,현대오일뱅크,02-379-0753,N,0,1709,1834,0,37.58578,126.9474
91,서울특별시,현대오일뱅크(주)직영 연세주유소,서울 서대문구 연희로,현대오일뱅크,02-337-8220,Y,1978,1709,1855,0,37.5809227,126.9361647
92,서울특별시,㈜우남에너지 문화사랑주유소,서울 서대문구 세검정로   ,S-OIL,02-395-4300,Y,0,1709,1899,1700,37.5965051,126.9536471
93,서울특별시,구도일주유소 두꺼비,서울 서대문구 성산로,S-OIL,02-336-0611,Y,0,1711,1841,1950,37.5601836,126.9361719
94,서울특별시,(주)미래아스팔트 신우주유소,서울 서대문구 가좌로,S-OIL,02-304-5522,Y,0,1711,1841,0,37.5797568,126.9286617
95,서울특별시,(주)가재울뉴타운주유소,서울 서대문구 모래내로,현대오일뱅크,070-8879-7864,Y,0,1711,1841,0,37.57917,126.93256
96,서울특별시,지에스칼텍스(주)홍제동주유소,서울 서대문구 통일로,GS칼텍스,02-736-3708,Y,1912,1712,1856,0,37.58578,126.9474
97,서울특별시,남정주유소,서울 서대문구 모래내로    ,GS칼텍스,02-305-9828,N,0,1718,1848,1800,37.57917,126.93256
98,서울특별시,현대오일뱅크㈜직영 독립문주유소,서울 서대문구 통일로    ,현대오일뱅크,02-735-0333,N,1999,1719,1864,0,37.58578,126.9474
99,서울특별시,(주)안국에너지 삼보셀프주유소,서울 서대문구 연희로   ,SK에너지,02-336-6151,Y,1988,1728,1868,0,37.5809227,126.9361647
100,서울특별시,삼미상사(주)서부주유소,서울 서대문구 성산로,SK에너지,02-334-4919,Y,0,1735,1865,0,37.5601836,126.9361719
101,서울특별시,광호주유소,서울 서대문구 연희로    ,SK에너지,02-395-7236,N,0,1738,1898,0,37.5809227,126.9361647
102,서울특별시,연희주유소,서울 서대문구 연희로      연희동,SK에너지,02-338-8045,N,2018,1738,1898,0,0,0
103,서울특별시,행촌제2주유소,서울 서대문구 성산로    ,SK에너지,02-365-5189,Y,2068,1768,1848,0,37.5601836,126.9361719
104,서울특별시,만남의광장주유소,서울 서초구 양재대로  길,알뜰(ex),02-573-7430,Y,0,1658,1779,0,0,0
105,서울특별시,에너지플러스허브 삼방주유소,서울 서초구 사평대로    ,GS칼텍스,02-536-5145,Y,1895,1720,1901,0,37.5006549,126.999802
106,서울특별시,지에스칼텍스(주)선천주유소,서울 서초구 동작대로    ,GS칼텍스,02-592-4915,N,1856,1721,1868,0,37.5045613,126.9803781
107,서울특별시,현대오일뱅크㈜직영 사평로주유소,서울 서초구 사평대로    ,현대오일뱅크,02-3481-2513,N,1970,1722,1857,0,37.5006549,126.999802
108,서울특별시,대성산업(주)직영 강남주유소,서울 서초구 반포대로    ,GS칼텍스,02-594-5987,Y,1942,1730,1869,0,37.512562,126.9975302
109,서울특별시,반포그린주유소,서울 서초구 서초중앙로    ,GS칼텍스,02-532-5147,Y,1905,1730,1911,0,37.5031307,127.0112106
110,서울특별시,현대오일뱅크(주)직영 팔레스주유소,서울 서초구 사평대로    ,현대오일뱅크,02-720-0020,N,1970,1730,1869,0,37.5006549,126.999802
111,서울특별시,한독주유소,서울 서초구 방배로    ,GS칼텍스,02-3477-6127,Y,1970,1730,1857,0,37.4961653,126.9883078
112,서울특별시,신반포주유소,서울 서초구 사평대로   ,SK에너지,02-533-5151,Y,1970,1730,1857,0,37.5006549,126.999802
113,서울특별시,현대오일뱅크(주)직영 방배현대주유소,서울 서초구 동작대로    ,현대오일뱅크,02-534-0051,N,1970,1737,1869,1700,37.5045613,126.9803781
114,서울특별시,(주)대농석유 남태령주유소,서울 서초구 과천대로    ,SK에너지,02-587-0895,Y,0,1745,1885,0,37.4705416,126.9839545
115,서울특별시,대성산업(주)직영 터미널(고속)주유소,서울 서초구 신반포로    ,GS칼텍스,02-535-3001,N,1954,1750,1931,1700,37.5019024,126.989635
116,서울특별시,에쓰오일(주)직영 오토테크주유소,서울특별시 서초구  효령로    ,S-OIL,02-585-5189,Y,1959,1759,1889,0,37.4768413,126.9863962
117,서울특별시,현대오일뱅크(주)직영 서초제일주유소,서울 서초구 사임당로    ,현대오일뱅크,02-587-6080,N,1970,1762,1889,0,37.4922129,127.0273037
118,서울특별시,극동유화(주) 전당앞주유소,서울 서초구 남부순환로     ,S-OIL,02-6080-0516,Y,1973,1765,1885,0,37.484155,127.0309417
119,서울특별시,서초꽃마을주유소,서울 서초구 반포대로   ,GS칼텍스,02-523-5551,Y,1985,1765,1895,0,37.512562,126.9975302
120,서울특별시,(주)한미석유 서초주유소,서울 서초구 반포대로   ,GS칼텍스,02-582-5198,Y,1985,1765,1895,0,37.512562,126.9975302
121,서울특별시,대성석유(주)연일주유소,서울 서초구 남부순환로,GS칼텍스,02-3471-5151,N,1996,1776,1898,1800,37.484155,127.0309417
122,서울특별시,말죽거리주유소,서울 서초구 남부순환로     ,GS칼텍스,02-579-9933,N,0,1776,1896,1755,37.484155,127.0309417
123,서울특별시,태봉셀프주유소,서울 서초구 태봉로    ,SK에너지,02-571-8000,Y,0,1793,1907,0,37.4617976,127.0217699
124,서울특별시,양재주유소,서울 서초구 바우뫼로,SK에너지,02-577-1621,N,2098,1805,1898,0,37.4781247,127.0386051
125,서울특별시,현대오일뱅크㈜직영 양재현대주유소,서울 서초구 마방로,현대오일뱅크,02-579-8429,N,2098,1805,1898,1700,37.4782093,127.0445122
126,서울특별시,지에스칼텍스(주)남서울주유소,서울 서초구 나루터로   ,GS칼텍스,02-542-1517,N,1959,1809,1901,1700,37.5150268,127.0162589
127,서울특별시,헌릉로주유소,서울 서초구 헌릉로    ,S-OIL,02-2058-3224,Y,1999,1819,1949,0,37.4609887,127.0505938
128,서울특별시,대신석유(주)대우주유소,서울 서초구 양재대로    ,SK에너지,02-572-0567,Y,0,1829,1917,0,37.4601375,127.0247428
129,서울특별시,(주)홈런주유소,서울 서초구 양재대로 길       ,S-OIL,02-577-5151,Y,0,1858,1958,0,0,0
130,서울특별시,방배동주유소,서울 서초구 효령로   ,SK에너지,02-584-2086,N,1998,1893,1991,0,37.4768413,126.9863962
131,서울특별시,대신석유㈜서원주유소,서울 서초구 반포대로    ,SK에너지,02-599-3657,N,2298,2178,2198,0,37.512562,126.9975302
132,서울특별시,양재최고주유소,서울 서초구 매헌로   ,S-OIL,02-2057-5189,N,0,2395,2395,0,37.468619,127.0365095
133,서울특별시,(주)선문에너지 중앙주유소,서울특별시 서초구  바우뫼로    ,S-OIL,02-575-5110,N,2579,2398,2418,1850,37.4781247,127.0386051
134,서울특별시,(주)서울에너지 직영,서울 성동구 천호대로    ,S-OIL,02-3390-4338,Y,0,1676,1809,0,37.5595955,127.07311
135,서울특별시,현대오일뱅크㈜직영 효진주유소,서울 성동구 동일로,현대오일뱅크,02-464-7252,N,1988,1679,1829,0,37.5393878,127.0623425
136,서울특별시,정호주유소,서울 성동구 고산자로    ,자가상표,02-2297-9442,N,0,1695,1835,0,37.5393546,127.0354803
137,서울특별시,KLP제2주유소,서울 성동구 동일로    ,현대오일뱅크,02-465-5182,Y,0,1695,1885,0,37.5393878,127.0623425
138,서울특별시,현대오일뱅크(주) 성동셀프주유소,서울 성동구 마장로    ,현대오일뱅크,02-2299-7333,Y,2085,1699,1829,0,37.5681502,127.046012
139,서울특별시,지에스칼텍스㈜ 도루코주유소,서울 성동구 아차산로,GS칼텍스,02-463-6919,Y,1930,1708,1855,1421,37.5436308,127.0589921
140,서울특별시,아이콘주유소,서울 성동구 고산자로    ,S-OIL,02-2291-5189,N,0,1718,1848,0,37.5393546,127.0354803
141,서울특별시,SK에너지(주) 군자동주유소,서울 성동구 천호대로    ,SK에너지,02-2244-4945,N,1969,1729,1859,0,37.5595955,127.07311
142,서울특별시,삼우주유소,서울 성동구 천호대로,SK에너지,02-2245-8974,N,1968,1749,1879,0,37.5595955,127.07311
143,서울특별시,kh에너지(주)성수만세주유소,서울 성동구 왕십리로,SK에너지,02-499-8223,Y,2118,1818,1938,0,37.5515075,127.043951
144,서울특별시,SK에너지(주) 성수주유소,서울 성동구 뚝섬로    ,SK에너지,02-467-7240,N,1989,1849,1969,0,37.5394111,127.0529402
145,서울특별시,SK세원2주유소,서울 성동구 광나루로    ,SK에너지,02-462-5665,N,2270,1875,1998,0,37.5480553,127.0627276
146,서울특별시,금호주유소,서울 성동구 금호로   ,GS칼텍스,02-2297-0066,N,2196,1998,2094,1920,37.5466623,127.0252149
147,서울특별시,동일주유소,서울 성동구 광나루로    ,현대오일뱅크,02-461-7100,N,2296,2035,2149,1625,37.5480553,127.0627276
148,서울특별시,(주)옥수하이웨이스테이션,서울 성동구 독서당로    ,GS칼텍스,02-2282-5151,N,2389,2189,2298,0,37.5543474,127.0340467
149,서울특별시,청계로주유소,서울 성동구 청계천로    ,SK에너지,02-2294-4225,N,0,2198,2297,1995,37.5706557,127.0337385
150,서울특별시,원천주유소,서울 성북구 돌곶이로    ,알뜰주유소,070-4063-1057,N,0,1669,1793,0,37.6101243,127.0577613
151,서울특별시,SK에너지(주) 드림랜드주유소,서울 성북구 월계로    ,SK에너지,02-916-9906,N,1893,1673,1833,1650,37.613186,127.0376399
152,서울특별시,장위주유소,서울 성북구 화랑로    ,S-OIL,02-6498-5189,Y,0,1675,1805,0,37.6023865,127.0401387
153,서울특별시,중앙에너비스 종암지점,서울 성북구 종암로,SK에너지,070-8707-4565,Y,0,1675,1805,0,37.598594,127.0346107
154,서울특별시,이케이에너지㈜ 강산주유소,서울 성북구 보문로   ,GS칼텍스,02-953-1448,Y,0,1675,1805,1650,37.588913,127.0166395
155,서울특별시,이케이에너지(주) 강산제2주유소,서울 성북구 보국문로,현대오일뱅크,02-942-1448,Y,1945,1675,1805,0,37.6098532,127.009535
156,서울특별시,(주)삼표에너지 정릉주유소,서울 성북구 보국문로   ,GS칼텍스,02-914-6556,Y,1945,1675,1805,1650,37.6098532,127.009535
157,서울특별시,신동방주유소,서울 성북구 월계로   ,S-OIL,02-918-5151,Y,2167,1675,1805,0,37.613186,127.0376399
158,서울특별시,(주)성북주유소,서울 성북구 보문로,현대오일뱅크,02-928-4900,Y,0,1675,1805,0,37.588913,127.0166395
159,서울특별시,지에스칼텍스(주) 종암주유소,서울 성북구 종암로    ,GS칼텍스,02-921-7785,Y,1951,1675,1815,0,37.598594,127.0346107
160,서울특별시,(주)신용 구도일주유소화랑로,서울 성북구 화랑로,S-OIL,02-963-0051,Y,0,1683,1813,0,37.6023865,127.0401387
161,서울특별시,현대오일뱅크㈜직영 장삼주유소,서울 성북구 한천로    ,현대오일뱅크,02-909-0314,Y,2043,1685,1815,0,37.6218796,127.0518597
162,서울특별시,현대오일뱅크㈜직영 고대셀프주유소,서울 성북구 종암로   ,현대오일뱅크,02-912-5151,Y,1965,1685,1815,0,37.598594,127.0346107
163,서울특별시,㈜명연에너지 효성주유소,서울 성북구 화랑로,GS칼텍스,02-942-5150,N,2135,1685,1815,0,37.6023865,127.0401387
164,서울특별시,우리주유소,서울 성북구 화랑로,SK에너지,02-969-5185,Y,0,1687,1827,0,37.6023865,127.0401387
165,서울특별시,현대오일뱅크㈜직영 북악셀프주유소,서울 성북구 정릉로    ,현대오일뱅크,02-911-5189,Y,2292,1687,1827,0,37.6025191,127.0191194
166,서울특별시,재정제2주유소 길음지점,서울 성북구 삼양로   ,현대오일뱅크,02-980-1311,N,0,1709,1839,1650,37.60901,127.02301
167,서울특별시,현대오일뱅크㈜직영 아리랑주유소,서울 성북구 아리랑로   ,현대오일뱅크,02-941-5189,N,1996,1717,1847,1773,37.5962462,127.0154874
168,서울특별시,동일주유소,서울특별시 성북구  보문로   ,S-OIL,02-923-8484,Y,2135,1725,1865,0,37.588913,127.0166395
169,서울특별시,지에스칼텍스㈜ 세창주유소,서울 성북구 동소문로,GS칼텍스,02-988-2491,Y,1953,1726,1864,1441,37.6073574,127.0285694
170,서울특별시,지에스칼텍스㈜ 화랑주유소,서울 성북구 화랑로,GS칼텍스,02-942-5152,N,0,1728,1862,1604,37.6023865,127.0401387
171,서울특별시,신방주유소,서울 성북구 안암로    ,S-OIL,02-922-5151,N,0,1739,1869,0,37.5825384,127.0293181
172,서울특별시,삼선주유소,서울 성북구 창경궁로,S-OIL,02-766-5105,Y,2197,1747,1845,0,37.5877331,127.004339
173,서울특별시,위례제일주유소,서울 송파구 위례서로,S-OIL,02-408-9951,Y,0,1683,1824,0,37.4743003,127.1373029
174,서울특별시,한강에너지(주)퍼스트주유소,서울 송파구 삼학사로   ,SK에너지,02-422-2834,Y,1899,1683,1824,0,37.5029214,127.0970217
175,서울특별시,위례드림주유소,서울시 송파구  위례중앙로,S-OIL,02-404-5189,Y,1843,1683,1824,0,37.4743031,127.1371283
176,서울특별시,남성대주유소,서울 송파구 송파대로   ,SK에너지,02-409-2211,Y,0,1698,1853,0,37.5168331,127.0974941
177,서울특별시,완불주유소,서울 송파구 송파대로  ,SK에너지,02-3402-2900,Y,1904,1718,1883,0,37.5168331,127.0974941
178,서울특별시,상아주유소,서울 송파구 거마로,S-OIL,02-409-8251,Y,0,1723,1833,1600,37.4934449,127.1445757
179,서울특별시,지에스칼텍스(주)스마트위례주유소,서울 송파구 위례중앙로   ,GS칼텍스,02-409-5185,Y,1838,1728,1894,0,37.4743031,127.1371283
180,서울특별시,지에스칼텍스(주)가든파이브주유소,서울 송파구 탄천동로,GS칼텍스,02-409-5145,Y,1878,1728,1894,0,37.5105038,127.0706573
181,서울특별시,현대오일뱅크㈜직영 잠실셀프주유소,서울 송파구 송파대로    ,현대오일뱅크,02-417-7111,Y,1928,1734,1880,1690,37.5168331,127.0974941
182,서울특별시,방이주유소,서울 송파구 위례성대로  길   ,SK에너지,02-424-3051,N,0,1738,1880,0,0,0
183,서울특별시,(주)뉴명성산업 남성주유소,서울 송파구 백제고분로    ,현대오일뱅크,02-423-5128,N,0,1738,1880,0,37.5038815,127.1035123
184,서울특별시,대성주유소,서울 송파구 마천로    ,SK에너지,02-431-1991,N,0,1738,1858,1598,37.5049362,127.1341029
185,서울특별시,백제고분로주유소,서울 송파구 오금로    ,SK에너지,02-2202-4050,Y,1928,1738,1880,0,37.50434,127.12459
186,서울특별시,삼화주유소,서울 송파구 백제고분로,GS칼텍스,02-2203-2280,Y,1928,1739,1880,0,37.5038815,127.1035123
187,서울특별시,삼전셀프주유소,서울 송파구 백제고분로,SK에너지,02-420-5101,Y,1928,1739,1880,0,37.5038815,127.1035123
188,서울특별시,(주)잠실에너지,서울 송파구 송파대로    ,S-OIL,02-414-5010,Y,1928,1739,1898,0,37.5168331,127.0974941
189,서울특별시,(주)삼표에너지 아시아주유소,서울 송파구 도곡로    ,GS칼텍스,02-416-1911,Y,1928,1739,1880,0,37.5051379,127.0773057
190,서울특별시,지에스이앤알 직영 송파제일주유소,서울 송파구 삼학사로   ,현대오일뱅크,02-424-2900,Y,0,1740,1880,0,37.5029214,127.0970217
191,서울특별시,(주)유진주유소,서울 송파구 동남로    ,SK에너지,02-406-3956,N,0,1743,1866,0,37.5169852,127.1438592
192,서울특별시,(주)삼표에너지 훼미리주유소,서울 송파구 중대로   ,GS칼텍스,02-448-9252,N,1969,1747,1888,1690,37.50753,127.13288
193,서울특별시,현대오일뱅크㈜직영 올림픽셀프주유소,서울 송파구 위례성대로    ,현대오일뱅크,02-448-9804,Y,1998,1748,1888,0,37.5123161,127.1271293
194,서울특별시,현대오일뱅크㈜직영 서원주유소,서울 송파구 중대로    ,현대오일뱅크,02-402-5929,N,1968,1748,1888,1725,37.50753,127.13288
195,서울특별시,(주)정직한주유소,서울 송파구 오금로    ,현대오일뱅크,02-406-4634,Y,0,1748,1888,0,37.50434,127.12459
196,서울특별시,제트라인DM주유소,서울 송파구 중대로    ,현대오일뱅크,02-430-5151,N,0,1748,1888,0,37.50753,127.13288
197,서울특별시,(주)신화에너지 서울지점,서울 송파구 가락로   ,SK에너지,02-2202-8484,Y,0,1751,1889,0,37.502052,127.1103018
198,서울특별시,(주)삼표에너지 우리주유소,서울 송파구 동남로,GS칼텍스,02-3401-1588,N,1975,1755,1885,1800,37.5169852,127.1438592
199,서울특별시,대성석유(주)석촌주유소,서울 송파구 백제고분로,GS칼텍스,02-421-0051,N,1998,1768,1885,1800,37.5038815,127.1035123
200,서울특별시,송파주유소,서울 송파구 송이로   ,GS칼텍스,02-2203-3737,Y,0,1775,1897,1700,37.5002912,127.1187956
201,서울특별시,(주)퍼스트오일서울주유소,서울 송파구 문정로,S-OIL,02-407-0708,N,0,1788,1900,1650,37.4861874,127.1243961
202,서울특별시,대신석유(주)진양주유소,서울 송파구 올림픽로    ,SK에너지,02-477-1906,N,2198,2078,2098,0,37.5122882,127.0957798
203,서울특별시,현대주유소,서울 양천구 남부순환로    ,S-OIL,02-2608-9231,Y,0,1627,1797,0,37.5168449,126.8394512
204,서울특별시,양천구주유소,서울 양천구 국회대로    ,알뜰주유소,02-2644-5105,Y,0,1637,1797,0,37.5256571,126.8351336
205,서울특별시,형산석유(주)원주유소,서울 양천구 남부순환로,현대오일뱅크,02-2690-5837,N,0,1639,1809,1795,37.5168449,126.8394512
206,서울특별시,개나리Self주유소,서울 양천구 남부순환로    ,SK에너지,02-2606-5189,Y,0,1644,1824,0,37.5168449,126.8394512
207,서울특별시,지에스칼텍스㈜ 서호주유소,서울 양천구 남부순환로,GS칼텍스,02-2602-5172,Y,1840,1660,1801,1700,37.5168449,126.8394512
208,서울특별시,가로공원주유소,서울 양천구 가로공원로    ,SK에너지,02-2695-3423,N,0,1664,1834,0,37.5362085,126.831573
209,서울특별시,신월주유소,서울 양천구 신월로    ,GS칼텍스,02-2603-5182,Y,0,1669,1839,0,37.5171531,126.8397244
210,서울특별시,(주)타이거오일 신정주유소,서울 양천구 중앙로    ,SK에너지,02-2646-6212,Y,0,1669,1839,0,37.5251538,126.8503443
211,서울특별시,지에스이앤알 직영 서울주유소,서울 양천구 신정로    ,GS칼텍스,02-2607-9478,N,0,1673,1873,0,37.5082108,126.8402978
212,서울특별시,신정동주유소,서울 양천구 안양천로    ,현대오일뱅크,02-2651-5189,Y,0,1687,1837,0,37.5465498,126.8811266
213,서울특별시,삼미상사(주)신월IC셀프주유소,서울 양천구 중앙로    ,SK에너지,02-2694-4966,Y,0,1689,1849,0,37.5251538,126.8503443
214,서울특별시,현대오일뱅크(주)직영 양정주유소,서울 양천구 국회대로    ,현대오일뱅크,02-2691-5185,N,0,1689,1799,0,37.5256571,126.8351336
215,서울특별시,SK에너지(주) 경인주유소,서울 양천구 국회대로    ,SK에너지,02-2693-4994,Y,0,1689,1849,1750,37.5256571,126.8351336
216,서울특별시,SK에너지(주) 신평,서울 양천구 목동남로,SK에너지,02-2654-5145,N,1844,1694,1849,1750,37.5104028,126.8671285
217,서울특별시,목동주유소,서울 양천구 목동중앙로    ,SK에너지,02-2645-5104,Y,0,1697,1857,0,37.5357618,126.8705162
218,서울특별시,현대오일뱅크(주)직영 양천현대셀프주유소,서울 양천구 안양천로     ,현대오일뱅크,02-2653-5189,Y,1899,1697,1857,0,37.5465498,126.8811266
219,서울특별시,현대오일뱅크㈜직영 목동셀프주유소,서울 양천구 공항대로    ,현대오일뱅크,02-2648-4204,Y,0,1697,1859,0,37.5469495,126.8729398
220,서울특별시,현대오일뱅크(주)직영 남부순환셀프주유소,서울 양천구 남부순환로    ,현대오일뱅크,02-2690-5001,Y,1788,1699,1864,0,37.5168449,126.8394512
221,서울특별시,지에스칼텍스㈜ 건지주유소,서울 양천구 안양천로     ,GS칼텍스,02-2644-5108,Y,1892,1702,1847,1700,37.5465498,126.8811266
222,서울특별시,(주)삼표에너지 목동주유소,서울 양천구 목동서로    ,GS칼텍스,02-2654-5153,Y,1902,1712,1857,0,37.5390345,126.8852717
223,서울특별시,현대오일뱅크(주)직영 양천셀프주유소,서울 양천구 목동로,현대오일뱅크,02-2644-5185,Y,1970,1719,1844,0,37.5295398,126.8639257
224,서울특별시,현대오일뱅크(주)직영 신목동셀프주유소,서울 양천구 목동동로  길,현대오일뱅크,02-2642-5188,Y,1999,1720,1865,0,0,0
225,서울특별시,(주)서부트럭터미날,서울 양천구 신정로    ,현대오일뱅크,02-2614-0047,N,0,1739,1899,1700,37.5082108,126.8402978
226,서울특별시,신양주유소,서울 양천구 지양로,SK에너지,02-2608-3312,N,0,1849,1949,1799,37.5184164,126.8374939
227,서울특별시,평화주유소,서울 양천구 안양천로    ,SK에너지,02-2647-2122,N,2147,1887,1987,0,37.5465498,126.8811266
228,서울특별시,남서울고속주유소,서울 영등포구 가마산로    ,SK에너지,02-843-5151,Y,1835,1627,1777,0,37.5022981,126.8998617
229,서울특별시,성락주유소,서울 영등포구 가마산로    ,S-OIL,02-842-6148,Y,0,1627,1777,0,37.5022981,126.8998617
230,서울특별시,도림주유소,서울 영등포구 도림로    ,알뜰주유소,02-835-8881,Y,0,1627,1777,0,37.5053836,126.9022564
231,서울특별시,영등포제일셀프주유소,서울 영등포구 가마산로,현대오일뱅크,02-847-5151,Y,0,1627,1777,0,37.5022981,126.8998617
232,서울특별시,(주)대청에너지 대청주유소,서울 영등포구 가마산로    ,GS칼텍스,02-841-8780,Y,0,1627,1777,0,37.5022981,126.8998617
233,서울특별시,매봉주유소,서울 영등포구 도신로    ,현대오일뱅크,02-836-8851,Y,0,1667,1817,1700,37.5046389,126.8968418
234,서울특별시,행촌주유소,서울 영등포구 도신로    ,SK에너지,070-7758-5189,Y,0,1667,1799,0,37.5046389,126.8968418
235,서울특별시,(주)MS에너지,서울 영등포구 대림로,현대오일뱅크,02-844-5151,N,0,1667,1797,0,37.50165,126.89696
236,서울특별시,(주)강서오일,서울 영등포구 도신로,현대오일뱅크,02-832-1700,N,0,1667,1799,1625,37.5046389,126.8968418
237,서울특별시,지에스칼텍스㈜ 신길주유소,서울 영등포구 신길로   ,GS칼텍스,02-833-1113,Y,1806,1667,1797,1610,37.5059003,126.9110557
238,서울특별시,영등포현대셀프주유소,서울 영등포구 경인로    ,현대오일뱅크,02-2678-0503,Y,0,1667,1797,0,37.5179113,126.9107443
239,서울특별시,(주)지에스이앤알 보라주유소,서울 영등포구 영등포로    ,GS칼텍스,02-842-1155,N,1819,1677,1827,0,37.5184309,126.9126393
240,서울특별시,㈜지에스이앤알 모드니주유소,서울 영등포구 경인로,GS칼텍스,02-2637-7788,N,0,1677,1827,0,37.5179113,126.9107443
241,서울특별시,씨앤에스유통 한성주유소,서울 영등포구 여의대방로,S-OIL,02-849-5180,N,0,1678,1858,1550,37.5110319,126.9247355
242,서울특별시,SK에너지(주) 양평주유소,서울 영등포구 선유로    ,SK에너지,02-2633-1013,Y,0,1679,1879,0,37.5361124,126.8979127
243,서울특별시,선유도주유소,서울 영등포구 양평로    ,S-OIL,02-2671-5223,Y,0,1679,1879,0,37.533182,126.9033747
244,서울특별시,(주)한미석유 제2한강주유소,서울 영등포구 선유로    ,GS칼텍스,02-2633-2716,Y,0,1679,1879,0,37.5361124,126.8979127
245,서울특별시,한경석유(주)경덕주유소,서울 영등포구 여의대방로  길  ,SK에너지,02-843-3900,Y,1806,1687,1797,0,0,0
246,서울특별시,SK에너지(주) 신길동주유소,서울 영등포구 영등포로    ,SK에너지,02-843-0481,N,1819,1689,1889,1640,37.5184309,126.9126393
247,서울특별시,현대오일뱅크㈜직영 대일셀프주유소,서울 영등포구 영등포로,현대오일뱅크,02-2068-8700,Y,2043,1714,1854,1760,37.5184309,126.9126393
248,서울특별시,지에스칼텍스㈜ 화일주유소,서울 영등포구 도림로,GS칼텍스,02-2633-5546,Y,1890,1718,1866,1700,37.5053836,126.9022564
249,서울특별시,SK에너지(주) 기린주유소,서울 영등포구 선유로,SK에너지,02-2671-5182,Y,1859,1719,1889,0,37.5361124,126.8979127
250,서울특별시,현대오일뱅크(주)직영 국회대로주유소,서울 영등포구 국회대로    ,현대오일뱅크,02-761-5122,N,1942,1742,1945,0,37.5301414,126.8916263
251,서울특별시,성원이앤에스(주)영등포지점,서울 영등포구 국회대로  길     ,GS칼텍스,02-2635-7781,N,2190,1998,2088,1900,0,0
252,서울특별시,KH여의도주유소,서울 영등포구 국회대로    ,SK에너지,02-761-5101,N,2300,2145,2344,0,37.5301414,126.8916263
253,서울특별시,버드나룻길주유소,서울 영등포구 버드나루로    ,SK에너지,02-2634-5104,N,2295,2150,2240,1730,37.52313,126.91087
254,서울특별시,SJ오일(주) 여의도주유소,서울 영등포구 은행로,GS칼텍스,02-785-8201,N,2360,2199,2360,1750,37.5305671,126.9252318
255,서울특별시,수유동주유소,서울 강북구 도봉로    ,GS칼텍스,02-902-9470,Y,0,1669,1795,0,37.6198903,127.0288685
256,서울특별시,㈜지에스이앤알 미아주유소,서울 강북구 도봉로    ,GS칼텍스,02-987-5152,Y,1925,1675,1835,0,37.6198903,127.0288685
257,서울특별시,북서울고속주유소,서울 강북구 삼양로    ,SK에너지,02-907-5182,Y,1925,1675,1795,0,37.6622213,127.013076
258,서울특별시,씨앤에스유통㈜ 미아셀프주유소,서울 강북구 도봉로    ,S-OIL,02-945-7999,Y,0,1675,1805,0,37.6198903,127.0288685
259,서울특별시,덕릉로주유소,서울 강북구 덕릉로    ,S-OIL,02-989-9806,Y,0,1675,1805,0,37.6346823,127.0235333
260,서울특별시,(주)석산에너지,서울 강북구 삼양로    ,현대오일뱅크,02-980-1448,Y,0,1675,1795,1650,37.6622213,127.013076
261,서울특별시,(주)서울에너지 시민주유소,서울 강북구 인수봉로    ,현대오일뱅크,02-907-9496,N,1925,1675,1795,0,37.62431,127.01252
262,서울특별시,대성석유(주)신광주유소,서울 강북구 삼양로,GS칼텍스,02-908-3320,N,0,1675,1795,1750,37.6622213,127.013076
263,서울특별시,SK에너지(주) 매일주유소,서울 강북구 삼양로    ,SK에너지,02-982-8855,Y,0,1675,1835,0,37.6622213,127.013076
264,서울특별시,현대오일뱅크(주)직영 번동셀프주유소,서울 강북구 한천로    ,현대오일뱅크,02-992-3331,Y,1975,1687,1817,0,37.6340656,127.0374292
265,서울특별시,에덴주유소,서울 강북구 월계로    ,SK에너지,02-987-8182,Y,0,1689,1819,0,37.6232,127.04784
266,서울특별시,세원주유소,서울 강북구 한천로    ,SK에너지,02-907-6890,Y,0,1698,1828,1650,37.6340656,127.0374292
267,서울특별시,현대오일뱅크㈜직영 강변현대주유소,서울 용산구 원효로  ,현대오일뱅크,02-712-7124,N,1959,1687,1819,0,37.5323287,126.9531022
268,서울특별시,현대오일뱅크(주)갈월동주유소,서울특별시 용산구  한강대로    ,현대오일뱅크,02-754-5217,N,2508,1810,1870,0,37.5362589,126.974078
269,서울특별시,동자동주유소,서울 용산구 한강대로   길  ,SK에너지,02-754-6667,N,2250,1810,1870,1950,0,0
270,서울특별시,현대오일뱅크(주)직영 소월길주유소,서울 용산구 소월로   ,현대오일뱅크,02-318-3314,N,2177,1887,1978,0,37.54527,126.99049
271,서울특별시,현대오일뱅크㈜직영 한남동주유소,서울 용산구 한남대로    ,현대오일뱅크,02-795-0802,N,2283,1897,1899,0,37.5267086,127.01337857176838
272,서울특별시,(주)신태성주유소,서울 용산구 원효로    ,SK에너지,02-701-9447,N,2320,2115,2296,1914,37.5323287,126.9531022
273,서울특별시,(주)영원 풍기주유소,서울 용산구 원효로    ,GS칼텍스,02-719-2202,N,2350,2128,2179,1880,37.5323287,126.9531022
274,서울특별시,(주)남경주유소,서울 용산구 녹사평대로  길,SK에너지,02-793-2954,N,2366,2147,2408,1962,37.535901,126.987955
275,서울특별시,제3한강주유소,서울 용산구 한남대로   ,GS칼텍스,02-749-3180,N,2348,2148,2278,0,37.5267086,127.01337857176838
276,서울특별시,한석주유소,서울 용산구 이촌로,SK에너지,02-790-1020,N,2395,2156,2492,0,37.5177993,126.9827917
277,서울특별시,에너비스,서울 용산구 한남대로   ,SK에너지,070-8707-4572,N,2527,2327,2397,0,37.5267086,127.01337857176838
278,서울특별시,한남지점,서울 용산구 한남대로  길  ,SK에너지,070-8707-4586,N,2527,2327,2397,0,0,0
279,서울특별시,서계주유소,서울특별시 용산구  청파로    ,GS칼텍스,02-706-6485,N,3289,2689,2954,2370,37.5434408,126.9706833
280,서울특별시,타이거주유소,서울 은평구 수색로    ,SK에너지,02-309-9145,Y,0,1674,1814,1800,37.5897667,126.8840132
281,서울특별시,(주)명연에너지 수색훼미리주유소,서울 은평구 수색로    ,현대오일뱅크,02-374-8770,Y,0,1695,1820,0,37.5897667,126.8840132
282,서울특별시,지에스칼텍스(주)수색뉴타운주유소,서울 은평구 수색로    ,GS칼텍스,02-309-5051,Y,1895,1695,1820,0,37.5897667,126.8840132
283,서울특별시,불광주유소,서울 은평구 연서로    ,현대오일뱅크,02-382-5149,Y,1957,1697,1822,0,37.6094,126.9162
284,서울특별시,대성산업㈜ 대성주유소,서울 은평구 통일로,GS칼텍스,02-355-3434,Y,1979,1709,1834,0,37.6251416,126.9200157
285,서울특별시,지에스칼텍스㈜ 녹번주유소,서울 은평구 통일로    ,GS칼텍스,02-385-5002,Y,1932,1712,1856,0,37.6251416,126.9200157
286,서울특별시,지에스칼텍스㈜ 신사제일주유소,서울 은평구 증산로    ,GS칼텍스,02-308-4333,Y,1922,1712,1856,1687,37.5787215,126.9042631
287,서울특별시,지에스칼텍스㈜ 서부주유소,서울 은평구 응암로    ,GS칼텍스,02-302-6041,Y,1922,1712,1856,1687,37.5919435,126.9176608
288,서울특별시,다회주유소,서울 은평구 증산로    ,S-OIL,02-375-5156,Y,0,1714,1844,0,37.5787215,126.9042631
289,서울특별시,박석고개주유소,서울 은평구 통일로    ,SK에너지,02-388-0477,Y,0,1717,1858,0,37.6251416,126.9200157
290,서울특별시,은평뉴타운주유소,서울 은평구 통일로    ,SK에너지,02-355-0349,Y,0,1717,1858,1690,37.6251416,126.9200157
291,서울특별시,현대오일뱅크㈜직영 은평드림주유소,서울 은평구 통일로     ,현대오일뱅크,02-354-5182,N,2013,1717,1842,1593,37.6251416,126.9200157
292,서울특별시,제이제이에너지,서울 은평구 응암로,SK에너지,02-303-1448,Y,0,1747,1897,0,37.5919435,126.9176608
293,서울특별시,성원이앤에스(주)은평지점,서울 은평구 통일로    ,GS칼텍스,02-352-4451,Y,2015,1753,1872,0,37.6251416,126.9200157
294,서울특별시,뉴타운셀프주유소,서울 은평구 통일로,S-OIL,02-355-3055,Y,0,1785,1895,0,37.6251416,126.9200157
295,서울특별시,코끼리주유소,서울 은평구 서오릉로   ,자가상표,02-384-4000,N,0,1798,1928,0,37.6128672,126.9139794
296,서울특별시,자하문주유소,서울 종로구 자하문로    ,SK에너지,02-396-5252,Y,2129,1899,1999,0,37.5982911,126.9617423
297,서울특별시,㈜지에스이앤알 평창주유소,서울 종로구 평창문화로    ,현대오일뱅크,02-391-5185,N,2046,1899,1999,0,37.607765,126.9723584
298,서울특별시,안풍주유소,서울 종로구 자하문로,S-OIL,02-396-5151,N,2129,1899,1999,0,37.5982911,126.9617423
299,서울특별시,구도일주유소특종,서울 종로구 평창문화로   ,S-OIL,02-379-6524,N,2130,1930,2030,1850,37.607765,126.9723584
300,서울특별시,SK북악주유소,서울 종로구 평창문화로,SK에너지,02-395-6500,N,2498,2298,2398,0,37.607765,126.9723584
301,서울특별시,경복궁주유소,서울 종로구 율곡로  ,GS칼텍스,02-6016-6981,N,2530,2310,2380,0,37.5757453,126.9810922
302,서울특별시,(주)대양씨앤씨 사직주유소,서울 종로구 사직로   ,GS칼텍스,02-735-4858,N,2535,2325,2395,1800,37.5723579,126.9634282
303,서울특별시,(주)중앙에너비스 혜화주유소,서울 종로구 창경궁로  길,SK에너지,070-8707-4564,N,2527,2327,2397,1800,0,0
304,서울특별시,다산주유소,서울 중구 다산로,S-OIL,02-2252-2210,Y,1989,1769,1859,1700,37.567665,127.0160853
305,서울특별시,장충드림주유소,서울 중구 동호로,S-OIL,02-2275-5150,Y,0,1795,1895,0,37.5694343,127.0020423
306,서울특별시,세화주유소,서울 중구 왕십리로,알뜰주유소,02-2234-3451,N,0,1798,1918,0,37.5650439,127.0257478
307,서울특별시,현대오일뱅크 장원주유소,서울 중구 동호로    ,현대오일뱅크,02-2236-2759,N,2083,1863,1923,1593,37.5694343,127.0020423
308,서울특별시,SK에너지(주) 퇴계로주유소,서울 중구 퇴계로    ,SK에너지,02-2273-5189,N,2090,1930,2110,0,37.5652135,127.0234384
309,서울특별시,장충주유소,서울 중구 장충단로    ,SK에너지,02-2279-9965,N,2348,2098,2198,0,37.5680428,127.009194
310,서울특별시,신당동주유소,서울 중구 다산로    ,SK에너지,02-2252-6688,N,2348,2148,2298,1890,37.567665,127.0160853
311,서울특별시,약수주유소,서울 중구 다산로,GS칼텍스,02-2252-3345,N,2467,2269,2386,0,37.567665,127.0160853
312,서울특별시,필동주유소,서울 중구 퇴계로    ,GS칼텍스,02-2267-8025,N,2699,2479,2569,2079,37.5652135,127.0234384
313,서울특별시,서남주유소,서울 중구 통일로,SK에너지,02-752-9475,N,3095,2695,2959,2540,37.5649625,126.967557
314,서울특별시,대양주유소,서울 중랑구 봉우재로    ,GS칼텍스,02-437-5457,Y,1890,1675,1797,1650,37.5906653,127.078103
315,서울특별시,우림주유소,서울특별시 중랑구  용마산로    ,GS칼텍스,02-433-9990,Y,0,1675,1815,0,37.6137974,127.1014054
316,서울특별시,(주)자연에너지 대창주유소,서울 중랑구 동일로    ,현대오일뱅크,02-434-1448,N,0,1677,1797,1650,37.5914913,127.0801181
317,서울특별시,구도일주유소 동천,서울 중랑구 동일로    ,S-OIL,02-495-0081,Y,0,1677,1797,0,37.5914913,127.0801181
318,서울특별시,(주)태영 구도일주유소 한인,서울 중랑구 망우로    ,S-OIL,02-438-5151,Y,1897,1677,1817,0,37.5934878,127.0740277
319,서울특별시,면목SELF주유소,서울 중랑구 동일로    ,SK에너지,02-437-4072,Y,0,1677,1797,0,37.5914913,127.0801181
320,서울특별시,오천만주유소,서울 중랑구 동일로    ,S-OIL,070-7797-7474,Y,0,1677,1797,0,37.5914913,127.0801181
321,서울특별시,대원주유소,서울 중랑구 동일로,GS칼텍스,02-438-6111,Y,1897,1677,1797,1700,37.5914913,127.0801181
322,서울특별시,(주)기지에너지,서울 중랑구 용마산로    ,S-OIL,02-2207-9419,N,0,1715,1835,1700,37.6137974,127.1014054
323,서울특별시,신내주유소,서울 중랑구 용마산로    ,SK에너지,02-2207-0523,Y,0,1724,1839,1700,37.6137974,127.1014054
324,서울특별시,용마로주유소,서울 중랑구 용마산로    ,SK에너지,02-439-3037,Y,0,1738,1858,1700,37.6137974,127.1014054
325,서울특별시,범아주유소,서울 중랑구 동일로    ,S-OIL,02-974-8356,N,0,1739,1859,1800,37.5914913,127.0801181
326,서울특별시,신일셀프주유소,서울 중랑구 상봉로   ,SK에너지,02-436-3651,Y,0,1798,1899,0,37.5981883,127.0928622
327,부산광역시,(주)젤코바에너지,부산 강서구 낙동남로,S-OIL,051-832-7560,N,0,1575,1785,0,35.1162281,128.913649
328,부산광역시,부산축산업협동조합 농협주유소,부산광역시 강서구  낙동남로    ,NH-OIL,051-973-8141,N,0,1575,1749,0,35.1162281,128.913649
329,부산광역시,은마석유(주)신호주유소,부산 강서구  낙동남로    ,현대오일뱅크,051-971-6331,Y,0,1582,1759,1500,35.1162281,128.913649
330,부산광역시,은마석유 경기장주유소,부산 강서구 낙동북로    ,GS칼텍스,051-971-7956,Y,1998,1615,1765,1550,35.2112945,128.978648
331,부산광역시,우리2주유소,부산 강서구 낙동북로    ,알뜰주유소,051-971-5585,Y,0,1615,1765,0,35.2112945,128.978648
332,부산광역시,KH남해서비스㈜ 서부산주유소,부산광역시 강서구 남해 지선고속도로,SK에너지,051-941-5155,Y,0,1643,1773,0,0,0
333,부산광역시,(주)경인에너지,부산 강서구 생곡로   ,S-OIL,051-971-5013,N,0,1645,1769,0,35.1285322,128.8998329
334,부산광역시,신항만에너지,부산 강서구 낙동남로    ,S-OIL,051-973-7622,Y,0,1645,1769,0,35.1162281,128.913649
335,부산광역시,공항대로주유소,부산 강서구 공항로     ,알뜰주유소,051-973-8122,Y,0,1645,1765,1500,35.1704571,128.9603172
336,부산광역시,김해공항주유소,부산 강서구 공항진입로   ,GS칼텍스,051-973-8291,Y,0,1645,1799,1580,35.1796117,128.9519049
337,부산광역시,(주)시큐 국제산단주유소,부산 강서구 생곡로,GS칼텍스,051-714-2208,Y,0,1645,1769,1550,35.1285322,128.8998329
338,부산광역시,(주)우양네트웍스 구도일주유소 삼광,부산 강서구 공항로    ,S-OIL,051-941-5188,Y,0,1645,1799,0,35.1704571,128.9603172
339,부산광역시,대경산업(주) 구랑주유소,부산 강서구 가락대로    ,GS칼텍스,051-972-1571,Y,0,1648,1778,0,35.1787115,128.9009616
340,부산광역시,이왕주유소,부산 강서구 대저로   번길   ,현대오일뱅크,051-972-9007,Y,0,1648,1778,1500,0,0
341,부산광역시,은마석유 (주)부산신항주유소,부산 강서구 가락대로,현대오일뱅크,051-971-5104,Y,0,1649,1779,0,35.1787115,128.9009616
342,부산광역시,은마석유(주)직영 강서주유소,부산 강서구 공항로    ,현대오일뱅크,051-973-5104,Y,0,1658,1788,0,35.1704571,128.9603172
343,부산광역시,(주)우양네트웍스 송산주유소,부산 강서구 호계로    ,S-OIL,051-973-7583,Y,0,1658,1775,0,35.2028539,128.8923061
344,부산광역시,평강주유소,부산 강서구 평강로    ,SK에너지,051-971-4411,Y,0,1658,1798,1550,35.1983981,128.9289432
345,부산광역시,동방석유㈜직영 대저주유소,부산 강서구 낙동북로    ,SK에너지,051-971-2135,Y,0,1658,1788,0,35.2112945,128.978648
346,부산광역시,세기상사(주) 공항주유소,부산 강서구 공항로    ,S-OIL,051-941-7237,N,0,1658,1768,0,35.1704571,128.9603172
347,부산광역시,우리들주유소,부산 강서구 낙동남로    ,알뜰주유소,051-941-5145,Y,0,1668,1778,0,35.1162281,128.913649
348,부산광역시,맥도주유소,부산 강서구 공항로    ,알뜰주유소,051-973-5735,Y,0,1668,1778,0,35.1704571,128.9603172
349,부산광역시,명지농협주유소,부산 강서구 르노삼성대로    ,NH-OIL,051-294-8528,Y,1879,1669,1779,0,35.1035889,128.9288359
350,부산광역시,대양석유(주)한마음주유소,부산 강서구 르노삼성로   ,SK에너지,051-271-2452,Y,0,1669,1779,0,0,0
351,부산광역시,(주)소모에너지 과학셀프주유소,부산 강서구 과학산단로    ,GS칼텍스,051-973-5153,Y,0,1678,1778,0,35.1331599,128.860611
352,부산광역시,오봉주유소,부산 강서구 호계로  ,SK에너지,051-972-5177,N,0,1678,1798,1550,35.2028539,128.8923061
353,부산광역시,(주)만은에너지 대사리주유소,부산 강서구 낙동북로   ,GS칼텍스,051-973-5999,Y,0,1678,1798,0,35.2112945,128.978648
354,부산광역시,신항만주유소,부산 강서구 가락대로    번길,현대오일뱅크,051-973-0935,Y,0,1679,1779,0,0,0
355,부산광역시,SK에너지(주) 경마장주유소,부산 강서구 가락대로,SK에너지,051-971-5188,Y,2039,1679,1799,0,35.1787115,128.9009616
356,부산광역시,OS신항주유소,부산 강서구 가락대로,GS칼텍스,051-972-6560,Y,0,1679,1799,0,35.1787115,128.9009616
357,부산광역시,(주)범방주유소,부산 강서구 가락대로,SK에너지,051-971-3337,N,0,1679,1799,0,35.1787115,128.9009616
358,부산광역시,비케이원(주) 미래드림주유소,부산 강서구 가락대로,현대오일뱅크,051-974-0808,Y,0,1679,1799,0,35.1787115,128.9009616
359,부산광역시,극동유화(주) 고려주유소,부산 강서구 르노삼성대로,S-OIL,051-207-1397,Y,2020,1679,1800,1790,35.1035889,128.9288359
360,부산광역시,녹산화물터미널주유소,부산 강서구 녹산산업북로    ,GS칼텍스,051-941-3015,N,0,1695,1769,0,35.0934746,128.8686141
361,부산광역시,명품주유소,부산 강서구 대저로    ,현대오일뱅크,051-941-0052,N,0,1698,1798,1750,35.21342,128.98102
362,부산광역시,(주)DJS신항만물류단지주유소,부산 강서구 가락대로    ,S-OIL,051-831-9208,Y,0,1698,1818,0,35.1787115,128.9009616
363,부산광역시,유성주유소,부산 강서구 생곡로    ,S-OIL,051-973-8852,Y,0,1698,1828,1600,35.1285322,128.8998329
364,부산광역시,제일주유소,부산 강서구 가락대로,GS칼텍스,051-971-2727,N,0,1698,1828,1550,35.1787115,128.9009616
365,부산광역시,명작주유소,부산 강서구 낙동남로    ,S-OIL,051-831-1067,N,0,1699,1779,0,35.1162281,128.913649
366,부산광역시,CJ대한통운㈜ 성민주유소,부산 강서구 가락대로    ,S-OIL,051-832-1611,N,0,1699,1819,0,35.1787115,128.9009616
367,부산광역시,(주)시큐 대저고속주유소,부산 강서구 체육공원로   ,GS칼텍스,051-941-5151,N,0,1699,1765,1500,35.2068027,128.9744337
368,부산광역시,금룡주유소,부산 강서구 가락대로     ,S-OIL,051-972-6081,N,0,1728,1848,1650,35.1787115,128.9009616
369,부산광역시,유성에너지(주)풍경주유소,부산 강서구 낙동남로,SK에너지,051-972-9676,N,0,1729,1829,0,35.1162281,128.913649
370,부산광역시,대양산업(주)대양가덕주유소,부산 강서구 거가대로      ,GS칼텍스,051-715-2201,Y,0,1737,1867,1750,35.0145909,128.7695165
371,부산광역시,(주)서호주유소,부산 강서구 명지국제 로  번길,S-OIL,051-206-6661,Y,2058,1758,1858,0,0,0
372,부산광역시,동성셀프주유소,부산 강서구 명지국제 로    ,S-OIL,051-711-7537,Y,0,1759,1859,0,0,0
373,부산광역시,내트럭(주) 부산신항남컨사업소,부산 강서구 신항남로,SK에너지,070-4454-9235,N,0,1769,1839,0,0,0
374,부산광역시,만선주유소,부산 강서구 가락대로   번길,현대오일뱅크,051-831-9171,N,0,1798,1878,1500,0,0
375,부산광역시,명지주유소,부산 강서구 낙동남로,SK에너지,051-271-2828,N,0,1798,1898,1600,35.1162281,128.913649
376,부산광역시,광신석유(주)직영 명지주유소,부산 강서구 르노삼성대로    ,SK에너지,051-271-4405,Y,2199,1899,1999,1799,35.1035889,128.9288359
377,부산광역시,은마석유 노포주유소,부산 금정구 중앙대로     ,GS칼텍스,051-508-1645,Y,0,1652,1782,1600,35.2990612,129.1037793
378,부산광역시,훼미리알뜰주유소,부산 금정구 두실로,알뜰주유소,051-582-5882,N,0,1652,1782,0,35.2600751,129.0927919
379,부산광역시,청룡명품주유소,부산 금정구 중앙대로,현대오일뱅크,051-508-5150,N,0,1652,1782,0,35.2990612,129.1037793
380,부산광역시,한길주유소,부산 금정구 반송로    ,현대오일뱅크,051-524-6642,Y,1970,1652,1768,0,35.2151129,129.1130564
381,부산광역시,금두꺼비주유소,부산광역시 금정구  부곡로   ,알뜰주유소,051-583-6433,Y,0,1657,1787,0,35.2184606,129.087379
382,부산광역시,에이원주유소,부산 금정구 반송로    ,SK에너지,051-532-5157,Y,0,1657,1773,0,35.2151129,129.1130564
383,부산광역시,남산주유소,부산 금정구 중앙대로     ,S-OIL,051-517-5149,Y,1998,1658,1798,0,35.2990612,129.1037793
384,부산광역시,금샘로주유소,부산 금정구 금샘로    ,SK에너지,051-517-0220,Y,1959,1659,1789,0,35.2753281,129.0850969
385,부산광역시,금강주유소,부산 금정구 중앙대로,SK에너지,051-581-8551,N,0,1659,1789,0,35.2990612,129.1037793
386,부산광역시,신화주유소,부산 금정구 금강로,현대오일뱅크,051-515-1997,Y,0,1678,1798,1650,35.2253827,129.0822276
387,부산광역시,금정산주유소,부산 금정구 금샘로    ,SK에너지,051-517-5472,N,0,1697,1877,1650,35.2753281,129.0850969
388,부산광역시,지에스칼텍스(주)신창주유소,부산 금정구 중앙대로     ,GS칼텍스,051-581-1212,Y,1914,1699,1804,1650,35.2990612,129.1037793
389,부산광역시,동진주유소,부산 금정구 금정로      ,SK에너지,051-515-5007,Y,1899,1699,1849,1800,35.2327995,129.0869374
390,부산광역시,현대오일뱅크㈜ 직영 금정셀프주유소,부산 금정구 중앙대로     ,현대오일뱅크,051-583-8951,Y,0,1709,1814,0,35.2990612,129.1037793
391,부산광역시,거북이주유소(SK),부산 금정구 중앙대로     ,SK에너지,051-516-5151,Y,0,1709,1814,1600,35.2990612,129.1037793
392,부산광역시,한솔유화(주) 직영 한길주유소,부산 금정구 중앙대로     ,현대오일뱅크,051-581-0875,N,0,1709,1814,1600,35.2990612,129.1037793
393,부산광역시,지에스칼텍스(주)영풍주유소,부산 금정구 중앙대로     ,GS칼텍스,051-512-3301,Y,1972,1752,1874,1650,35.2990612,129.1037793
394,부산광역시,새석대주유소,부산 금정구 반송로    ,S-OIL,051-527-5142,N,0,1757,1897,1700,35.2151129,129.1130564
395,부산광역시,식물원주유소,부산 금정구 금샘로   ,S-OIL,051-515-5189,N,0,1759,1859,1700,35.2753281,129.0850969
396,부산광역시,동양주유소,부산 금정구  반송로    ,현대오일뱅크,051-523-1214,Y,0,1772,1899,0,35.2151129,129.1130564
397,부산광역시,석2주유소,부산 금정구 식물원로   ,GS칼텍스,051-581-1370,N,0,1789,1899,1700,35.22556,129.08159
398,부산광역시,내리주유소,부산 기장군 기장읍 기장대로,현대오일뱅크,051-722-7363,Y,0,1619,1742,1650,35.2220297,129.2126001
399,부산광역시,은마석유(주) 대영주유소,부산 기장군 정관면 정관로,GS칼텍스,051-728-5133,Y,0,1638,1768,0,0,0
400,부산광역시,월드컵주유소,부산 기장군 일광면 기장대로,알뜰주유소,051-727-1212,Y,0,1648,1758,0,0,0
401,부산광역시,선암주유소,부산 기장군 장안읍 기장대로,알뜰주유소,051-727-1212,Y,0,1648,1766,1600,35.3504221,129.2539075
402,부산광역시,공단신도시주유소,부산 기장군 정관면 정관로,현대오일뱅크,051-728-4686,Y,0,1648,1778,1650,0,0
403,부산광역시,오성주유소,부산 기장군 일광면 일광로,현대오일뱅크,051-728-8851,N,0,1657,1783,1600,0,0
404,부산광역시,달음산주유소,부산 기장군 장안읍 정관로,GS칼텍스,051-727-5177,Y,0,1658,1768,0,35.3216587,129.2290016
405,부산광역시,정관신도시주유소/충전소,부산 기장군 정관면 정관로,SK에너지,051-727-6228,Y,0,1658,1768,1600,0,0
406,부산광역시,백운1주유소,부산 기장군 정관면 정관로,GS칼텍스,051-728-4433,Y,0,1658,1768,1600,0,0
407,부산광역시,기분조은주유소,부산 기장군 정관면 정관로,SK에너지,051-728-5166,Y,0,1658,1768,1700,0,0
408,부산광역시,부경셀프주유소,부산 기장군 기장읍 반송로,알뜰주유소,051-721-5181,Y,0,1659,1779,0,35.2485852,129.2097024
409,부산광역시,삼2주유소,부산 기장군 일광면 기장대로,S-OIL,051-791-2847,N,0,1660,1850,0,0,0
410,부산광역시,의학원self주유소,부산 기장군 장안읍 좌동길,SK에너지,051-728-1212,Y,0,1665,1785,0,35.31793,129.24218
411,부산광역시,뉴장안IC주유소,부산 기장군 장안읍 좌동길,S-OIL,051-728-3838,Y,0,1665,1785,1600,35.31793,129.24218
412,부산광역시,㈜첼시주유소,부산 기장군 장안읍 정관로,현대오일뱅크,051-727-7473,Y,2328,1668,1768,0,35.3216587,129.2290016
413,부산광역시,(주)천일에너지 천일주유소,부산 기장군 신정관로,현대오일뱅크,051-728-7866,Y,0,1668,1768,0,35.3400039,129.169516
414,부산광역시,창암주유소,부산 기장군 정관면 신정관로,S-OIL,051-727-3332,Y,0,1668,1768,0,0,0
415,부산광역시,(주)동광주유소,부산 기장군 기장읍 차성로,현대오일뱅크,051-722-4451,Y,0,1669,1789,1600,35.2557144,129.2189555
416,부산광역시,기장IC주유소,부산 기장군 일광면 기장대로,SK에너지,051-724-4841,Y,0,1669,1789,0,0,0
417,부산광역시,삼거리주유소,부산 기장군 기장읍 반송로,현대오일뱅크,051-721-8411,N,0,1669,1789,1650,35.2485852,129.2097024
418,부산광역시,동양주유소/충전소,부산 기장군 기장읍 기장대로,현대오일뱅크,051-723-0202,Y,1999,1669,1789,0,35.2220297,129.2126001
419,부산광역시,하영주유소,부산 기장군 기장읍 반송로,GS칼텍스,051-722-3370,Y,0,1669,1789,0,35.2485852,129.2097024
420,부산광역시,삼성셀프주유소,부산 기장군 일광면 기장대로,S-OIL,051-722-5160,Y,0,1669,1789,0,0,0
421,부산광역시,용문주유소,부산 기장군 일광면 기장대로,현대오일뱅크,051-722-5594,Y,0,1669,1789,0,0,0
422,부산광역시,동부산농협클린주유소,부산 기장군 일광면 기장대로,NH-OIL,051-724-5181,Y,0,1675,1789,1600,0,0
423,부산광역시,명례주유소,부산 기장군 장안읍 기장대로,현대오일뱅크,051-727-5120,N,0,1675,1795,1600,35.3504221,129.2539075
424,부산광역시,장안IC(상)주유소,부산 기장군 장안읍 기장대로,SK에너지,051-728-6161,Y,0,1678,1798,0,35.3504221,129.2539075
425,부산광역시,안평주유소,부산 기장군 철마면 반송로,S-OIL,051-722-7979,N,0,1678,1798,1600,35.2491433,129.1881956
426,부산광역시,(주)동남주유소,부산 기장군 철마면 반송로,GS칼텍스,051-722-9900,Y,0,1679,1799,1600,35.2491433,129.1881956
427,부산광역시,세방주유소,부산 기장군 일광면 기장대로,현대오일뱅크,051-727-0016,N,0,1686,1818,1650,0,0
428,부산광역시,신아시아드주유소,부산광역시 기장군 일광면 기장대로,GS칼텍스,051-722-8702,N,0,1687,1797,1600,0,0
429,부산광역시,대변주유소,부산 기장군 기장읍 연화길,알뜰주유소,051-723-1800,N,0,1689,1799,1700,35.2186063,129.2261391
430,부산광역시,솔밭주유소,부산 기장군 장안읍 하근 길,SK에너지,051-727-7277,Y,0,1695,1795,1600,35.3471038,129.2545843
431,부산광역시,(주)장안가스충전소/주유소,부산 기장군 장안읍 기장대로,S-OIL,051-728-8686,N,0,1697,1827,0,35.3504221,129.2539075
432,부산광역시,태양주유소,부산 기장군 기장읍 대변로,GS칼텍스,051-724-5189,N,0,1697,1817,1600,35.2308454,129.221198
433,부산광역시,(주)푸른숲self주유소,부산 기장군 장안읍 기장대로,SK에너지,051-727-8213,Y,2298,1698,1828,0,35.3504221,129.2539075
434,부산광역시,장안IC(하)주유소,부산 기장군 장안읍 기장대로,SK에너지,051-728-5189,N,0,1698,1828,0,35.3504221,129.2539075
435,부산광역시,창암2주유소,부산 기장군 정관면 신정관로,자가상표,051-727-3332,N,0,1698,1768,0,0,0
436,부산광역시,KH에너지(주)직영 장안주유소(울산방향),부산 기장군 장안읍 동해고속도로,SK에너지,051-728-5157,N,0,1718,1842,0,35.34503,129.25001
437,부산광역시,KH에너지(주)직영 장안주유소(부산방향),부산 기장군 장안읍 동해고속도로,SK에너지,051-727-7300,N,0,1718,1842,0,35.34503,129.25001
438,부산광역시,공단주유소,부산 기장군 정관면 정관로,현대오일뱅크,051-727-1334,N,0,1718,1838,1650,0,0
439,부산광역시,지에스칼텍스(주)청강휴게소주유소,부산 기장군 기장읍 기장대로,GS칼텍스,051-724-1147,Y,0,1719,1849,0,35.2220297,129.2126001
440,부산광역시,기장수협주유소,부산 기장군 기장읍 기장해안로,SK에너지,051-721-1813,N,0,1739,1899,0,35.190258,129.2133154
441,부산광역시,(주)SK정관주유소,부산 기장군 정관면 정관덕산길,SK에너지,051-728-5083,Y,0,1749,1879,1700,0,0
442,부산광역시,(주)고리길천주유소,부산 기장군 장안읍 해맞이로,S-OIL,051-728-9300,N,0,1798,1898,1600,35.33381,129.29099
443,부산광역시,월드주유소,부산 기장군 기장읍 반송로,현대오일뱅크,051-723-3461,Y,0,1798,1898,0,35.2485852,129.2097024
444,부산광역시,성지셀프주유소,부산 남구 유엔로   ,SK에너지,051-636-0051,Y,0,1654,1788,0,35.125477,129.0794739
445,부산광역시,우암로셀프주유소,부산 남구 우암로    ,현대오일뱅크,051-643-5363,Y,0,1655,1788,0,35.1144195,129.0816316
446,부산광역시,우암주유소,부산 남구 우암로,GS칼텍스,051-644-0142,Y,0,1655,1788,0,35.1144195,129.0816316
447,부산광역시,삼화주유소,부산 남구 우암로   ,알뜰주유소,051-646-1620,N,0,1655,1788,1600,35.1144195,129.0816316
448,부산광역시,지에스칼텍스㈜ 비치주유소,부산 남구 용호로   ,GS칼텍스,051-625-5151,Y,1879,1659,1779,1650,35.128583,129.1069658
449,부산광역시,매일주유소,부산 남구 수영로   ,알뜰주유소,051-646-5182,Y,0,1668,1788,1600,35.1368786,129.0705652
450,부산광역시,사랑드림주유소,부산 남구 황령대로    ,S-OIL,051-612-0529,Y,1949,1669,1789,0,35.1395047,129.1058061
451,부산광역시,팔성셀프주유소,부산 남구 유엔로,현대오일뱅크,051-622-9985,Y,0,1669,1789,0,35.125477,129.0794739
452,부산광역시,북항대교주유소,부산 남구  신선로    ,S-OIL,051-628-5152,Y,0,1669,1799,1650,35.1279111,129.1027059
453,부산광역시,YK에너지(주),부산 남구 신선로    ,SK에너지,051-623-5189,Y,1949,1669,1789,0,35.1279111,129.1027059
454,부산광역시,(주)문화주유소,부산 남구 유엔로,GS칼텍스,051-621-2416,Y,1949,1669,1789,1650,35.125477,129.0794739
455,부산광역시,은마석유주식회사,부산 남구 신선로    ,GS칼텍스,051-628-4323,Y,1949,1669,1789,0,35.1279111,129.1027059
456,부산광역시,(주)대호석유 용당CY주유소,부산 남구 신선로    ,GS칼텍스,051-622-5121,Y,1949,1669,1789,0,35.1279111,129.1027059
457,부산광역시,광신리소스㈜ 직영 광안대교주유소,부산 남구 유엔로,SK에너지,051-625-1140,Y,0,1669,1789,0,35.125477,129.0794739
458,부산광역시,분포셀프주유소,부산 남구 용호로    ,SK에너지,051-627-5151,Y,0,1675,1795,1600,35.128583,129.1069658
459,부산광역시,(주)경인석유,부산 남구 신선로    ,SK에너지,051-626-2426,Y,0,1678,1798,0,35.1279111,129.1027059
460,부산광역시,금강석유(주) 영웅주유소,부산 남구 황령대로    ,현대오일뱅크,051-627-0180,Y,0,1698,1828,0,35.1395047,129.1058061
461,부산광역시,구도일주유소용호,부산 남구 용호로    ,S-OIL,051-611-5191,N,0,1699,1819,1650,35.128583,129.1069658
462,부산광역시,CJ대한통운(주)직영 용당터미널주유소,부산 남구 신선로,현대오일뱅크,051-621-5154,N,0,1709,1809,0,35.1279111,129.1027059
463,부산광역시,내트럭(주)부산용당,부산 남구 신선로,SK에너지,051-931-8001,N,0,1709,1829,0,35.1279111,129.1027059
464,부산광역시,내트럭(주)부산사업소,부산 남구 신선로,SK에너지,051-638-3971,N,0,1709,1849,0,35.1279111,129.1027059
465,부산광역시,지에스칼텍스㈜ 대연주유소,부산 남구 수영로,GS칼텍스,051-624-2552,Y,1953,1719,1854,1650,35.1368786,129.0705652
466,부산광역시,반도주유소,부산 남구 신선로    ,S-OIL,051-626-6828,N,0,1727,1827,0,35.1279111,129.1027059
467,부산광역시,문현주유소,부산 남구 우암로    ,현대오일뱅크,051-635-5103,Y,0,1728,1828,1700,35.1144195,129.0816316
468,부산광역시,동명주유소,부산 남구 황령대로  번길  ,S-OIL,051-646-4390,N,0,1728,1828,0,0,0
469,부산광역시,대일주유소,부산 남구 황령대로      ,GS칼텍스,051-627-0727,N,1965,1755,1865,0,35.1395047,129.1058061
470,부산광역시,금융단지주유소,부산 남구 황령대로  번길   ,현대오일뱅크,051-633-5117,N,1949,1769,1899,0,0,0
471,부산광역시,인터지스(주)인터지스주유소,부산 남구 신선로    ,현대오일뱅크,051-611-7611,N,0,1793,1893,0,35.1279111,129.1027059
472,부산광역시,대성주유소,부산광역시 남구 문현로   ,현대오일뱅크,051-634-0668,N,0,1799,1949,1850,35.1427956,129.0739423
473,부산광역시,(주)신선에너지 유엔주유소,부산 남구 석포로    ,SK에너지,051-624-5779,N,2139,1879,1979,0,35.1230847,129.0855727
474,부산광역시,굿오일주유소,부산 남구 북항로,S-OIL,051-637-5157,N,0,0,1819,0,35.1096484,129.0924616
475,부산광역시,지에스칼텍스㈜ 해안주유소,부산 동구 충장대로,GS칼텍스,051-469-3879,Y,1875,1655,1765,1650,35.1110083,129.0415537
476,부산광역시,부산벙커앤오일 청구주유소,부산 동구 충장대로    ,SK에너지,051-635-9698,Y,0,1655,1765,1650,35.1110083,129.0415537
477,부산광역시,동방석유(주)초량주유소,부산 동구  중앙대로    ,SK에너지,051-469-5181,Y,0,1665,1798,0,35.1157262,129.0399028
478,부산광역시,구도일주유소 부산진,부산 동구 중앙대로    ,S-OIL,051-644-6200,Y,1875,1665,1798,0,35.1157262,129.0399028
479,부산광역시,(주)대양씨앤씨직영주유소,부산 동구 성남로   ,GS칼텍스,051-646-5563,Y,0,1665,1775,0,35.1272208,129.0548136
480,부산광역시,CJ대한통운㈜ 부산주유소,부산 동구 충장대로    ,GS칼텍스,051-719-5143,Y,0,1665,1775,0,35.1110083,129.0415537
481,부산광역시,대양대박주유소,부산 동구 성남로   ,GS칼텍스,051-634-5252,N,0,1695,1805,1650,35.1272208,129.0548136
482,부산광역시,동구SK주유소,부산 동구 중앙대로    ,SK에너지,051-715-9338,Y,0,1698,1848,0,35.1157262,129.0399028
483,부산광역시,동방석유(주)형제주유소,부산광역시 동구  자성로    ,SK에너지,051-646-5471,Y,0,1699,1818,0,35.1319989,129.0521391
484,부산광역시,㈜삼현석유 천일주유소,부산 동구 중앙대로    ,S-OIL,051-466-1001,N,0,2185,1798,0,35.1157262,129.0399028
485,서울특별시,이케이에너지(주) 강서주유소,서울 강서구 화곡로    ,현대오일뱅크,02-2699-5219,Y,0,1587,1767,0,37.5415522,126.8402157
486,서울특별시,뉴신정주유소,서울 강서구 곰달래로    ,알뜰주유소,02-2601-0077,N,0,1597,1777,0,37.5319912,126.8606923
487,서울특별시,화곡역주유소,서울 강서구 강서로    ,알뜰주유소,02-2691-5151,Y,0,1597,1777,0,37.5607324,126.8389315
488,서울특별시,목화주유소,서울 강서구 국회대로    ,알뜰주유소,02-2654-4564,Y,0,1627,1797,0,37.526978,126.8430983
489,서울특별시,방화주유소,서울 강서구 방화동로     ,SK에너지,02-2662-0503,Y,0,1643,1803,1700,37.5615634,126.8080486
490,서울특별시,스카이주유소,서울 강서구 개화동로    ,S-OIL,02-2663-5146,Y,1858,1645,1846,0,37.5928784,126.8047787
491,서울특별시,KH에너지(주)직영 KH외발산주유소,서울 강서구 방화대로,SK에너지,032-677-9497,Y,2198,1645,1817,0,37.560794,126.8165194
492,서울특별시,행촌에너지 공항주유소,서울 강서구 개화동로    ,현대오일뱅크,02-2665-5189,Y,0,1645,1805,0,37.5928784,126.8047787
493,서울특별시,지에스칼텍스㈜ 경인고속주유소,서울 강서구 국회대로    ,GS칼텍스,02-2608-5151,Y,1845,1645,1824,1700,37.526978,126.8430983
494,서울특별시,강서오곡셀프주유소,서울 강서구 벌말로    ,SK에너지,032-671-5186,Y,0,1647,1807,0,37.5528364,126.7677758
495,서울특별시,유턴주유소,서울 강서구 남부순환로,알뜰주유소,02-2665-5047,Y,0,1665,1849,1595,37.5414683,126.8244544
496,서울특별시,화곡현대주유소,서울 강서구 강서로    ,SK에너지,02-2607-1942,Y,2095,1676,1846,0,37.5607324,126.8389315
497,서울특별시,개화주유소,서울 강서구 양천로,SK에너지,02-2661-5555,Y,0,1677,1837,0,37.5486009,126.8787206
498,서울특별시,하이웨이주유소,서울특별시 강서구 공항대로,S-OIL,02-2605-4000,Y,1787,1678,1787,0,37.5554981,126.853861
499,서울특별시,신화곡주유소,서울 강서구 국회대로,S-OIL,02-2611-3161,Y,0,1695,1875,0,37.526978,126.8430983
500,서울특별시,현대오일뱅크 등촌주유소,서울 강서구 등촌로    ,현대오일뱅크,02-2647-5700,N,0,1696,1846,0,37.5510315,126.8640406
501,서울특별시,현대오일뱅크 양화교주유소,서울 강서구 공항대로,현대오일뱅크,02-3665-2004,Y,1899,1697,1859,1740,37.5554981,126.853861
502,서울특별시,강서열린주유소,서울 강서구 등촌로    ,GS칼텍스,02-2647-9091,N,0,1698,1858,1750,37.5510315,126.8640406
503,서울특별시,대성석유(주) 관문주유소,서울 강서구 공항대로,GS칼텍스,02-3665-2051,N,2076,1746,1858,1850,37.5554981,126.853861
504,서울특별시,우장산주유소,서울 강서구 강서로    ,SK에너지,02-3664-7163,Y,0,1756,1858,1700,37.5607324,126.8389315
505,서울특별시,대성석유(주) 마곡대성주유소,서울 강서구 강서로,GS칼텍스,02-3664-7781,Y,2076,1756,1858,0,37.5607324,126.8389315
506,서울특별시,(주)한진 김포공항주유소,서울 강서구 하늘길,S-OIL,02-2662-0422,Y,0,1759,1859,1600,37.5581464,126.8047948
507,서울특별시,현대오일뱅크(주) 가양주유소,서울 강서구  양천로    ,현대오일뱅크,02-3661-9470,N,2156,1766,1865,0,37.5486009,126.8787206
508,서울특별시,대성주유소,서울 강서구 강서로,GS칼텍스,02-3661-6102,N,0,1776,1868,0,37.5607324,126.8389315
509,서울특별시,KH에너지(주)직영 가양주유소,서울 강서구 강서로    ,SK에너지,02-3664-6051,N,2156,1776,1868,0,37.5607324,126.8389315
510,서울특별시,오션네트웍스(주) 서울식물원지점,서울 강서구 양천로,SK에너지,02-3661-8829,Y,1987,1776,1865,0,37.5486009,126.8787206
511,서울특별시,세원제1주유소,서울 강서구 양천로    ,SK에너지,02-3663-5151,Y,0,1785,1865,0,37.5486009,126.8787206
512,서울특별시,대성석유(주)방화대성주유소,서울 강서구 양천로,GS칼텍스,02-3663-7781,Y,2076,1786,1868,0,37.5486009,126.8787206
513,서울특별시,(주)한진 김포공항제2주유소,서울 강서구 하늘길,S-OIL,02-2661-8892,Y,0,1788,1915,0,37.5581464,126.8047948
514,서울특별시,코리나(주)청룡주유소,서울 강서구 양천로,SK에너지,02-3661-1575,N,0,1798,1898,1800,37.5486009,126.8787206
515,서울특별시,박물관주유소,서울 강서구 양천로  길   ,GS칼텍스,02-3665-5189,N,2158,1828,1898,0,0,0
516,서울특별시,참솔에너지,서울 강서구 벌말로    ,S-OIL,070-8844-8282,Y,0,1896,1998,0,37.5528364,126.7677758
517,서울특별시,염창동주유소,서울 강서구 양천로    ,SK에너지,02-3664-4134,N,0,2089,2170,0,37.5486009,126.8787206
518,부산광역시,대일주유소,부산 동래구 충렬대로    ,알뜰주유소,051-502-1155,Y,0,1635,1785,0,35.206361,129.0734256
519,부산광역시,명장주유소,부산 동래구 반송로    ,알뜰주유소,051-522-3355,Y,0,1642,1758,1600,35.1982451,129.0964798
520,부산광역시,지에스칼텍스(주)동호주유소,부산 동래구 반송로    ,GS칼텍스,051-526-9967,Y,0,1647,1763,0,35.1982451,129.0964798
521,부산광역시,한양주유소,부산 동래구  충렬대로    ,SK에너지,051-554-3363,N,0,1656,1786,1600,35.206361,129.0734256
522,부산광역시,현대오일뱅크㈜직영 안락대로셀프주유소,부산 동래구 충렬대로    ,현대오일뱅크,051-522-2379,Y,1940,1666,1779,0,35.206361,129.0734256
523,부산광역시,신세계주유소,부산 동래구 충렬대로    ,알뜰주유소,051-528-0600,N,0,1667,1787,0,35.206361,129.0734256
524,부산광역시,보강주유소,부산 동래구  충렬대로    ,현대오일뱅크,051-531-2535,Y,0,1667,1787,1700,35.206361,129.0734256
525,부산광역시,(주)대원에너지 대원주유소,부산 동래구 충렬대로     ,S-OIL,051-852-6492,Y,0,1667,1787,0,35.206361,129.0734256
526,부산광역시,한창주유소,부산 동래구 우장춘로,현대오일뱅크,051-583-5151,Y,0,1678,1798,0,35.2131658,129.0716834
527,부산광역시,안락교차로주유소,부산 동래구 충렬대로    ,GS칼텍스,051-552-6262,N,0,1678,1798,1650,35.206361,129.0734256
528,부산광역시,동방석유(주)푸른주유소,부산 동래구 충렬대로    ,SK에너지,051-555-3827,Y,0,1679,1799,0,35.206361,129.0734256
529,부산광역시,(주)삼보명진주유소,부산 동래구 충렬대로   ,GS칼텍스,051-553-3000,Y,0,1679,1799,0,35.206361,129.0734256
530,부산광역시,광신석유(주)직영 충렬대로주유소,부산 동래구 충렬대로,SK에너지,051-555-3258,Y,0,1679,1799,0,35.206361,129.0734256
531,부산광역시,지에스칼텍스㈜ 태양주유소,부산 동래구 충렬대로    ,GS칼텍스,051-526-0107,Y,1923,1679,1809,0,35.206361,129.0734256
532,부산광역시,대경주유소,부산 동래구 반송로    ,현대오일뱅크,051-555-1177,N,0,1698,1758,0,35.1982451,129.0964798
533,부산광역시,온천주유소,부산 동래구 명륜로,GS칼텍스,051-558-2250,Y,0,1698,1848,1650,35.1994729,129.0847106
534,부산광역시,충렬주유소,부산 동래구 충렬대로,S-OIL,051-522-0569,Y,0,1738,1838,0,35.206361,129.0734256
535,부산광역시,대원주유소,부산 동래구 미남로,S-OIL,051-502-0733,Y,0,1768,1868,1700,35.1995781,129.0703019
536,부산광역시,(주)태화주유소,부산 부산진구 가야대로,SK에너지,051-896-6147,Y,0,1615,1779,0,35.1567742,129.047986
537,부산광역시,백양주유소,부산 부산진구  백양대로    ,SK에너지,051-894-6622,N,0,1623,1773,1750,35.1622518,129.0499505
538,부산광역시,진성주유소,부산 부산진구 백양대로,S-OIL,051-896-4500,Y,0,1625,1775,0,35.1622518,129.0499505
539,부산광역시,(주)주공에너지,부산 부산진구 백양대로,알뜰주유소,051-898-0809,Y,0,1625,1774,0,35.1622518,129.0499505
540,부산광역시,(주)우양네트웍스 하마정주유소,부산 부산진구 동평로,S-OIL,051-861-5104,Y,0,1627,1795,0,35.1644264,129.0317246
541,부산광역시,광신석유(주)직영 양정주유소,부산 부산진구 동평로    ,SK에너지,051-862-7063,Y,0,1643,1773,0,35.1644264,129.0317246
542,부산광역시,대양주유소,부산 부산진구 새싹로     ,알뜰주유소,051-818-6161,Y,0,1643,1773,0,35.1598262,129.0574419
543,부산광역시,스마일주유소,부산 부산진구 동평로,자가상표,051-897-2022,Y,0,1643,1773,0,35.1644264,129.0317246
544,부산광역시,은마석유(주) 항도주유소,부산 부산진구 신암로   ,GS칼텍스,051-632-5189,Y,1980,1645,1775,0,35.1563098,129.0463233
545,부산광역시,영우에너지 부전주유소,부산 부산진구 신천대로,알뜰주유소,051-802-5593,Y,0,1645,1775,0,35.1506167,129.0578688
546,부산광역시,은마석유(주) 제일주유소,부산 부산진구 거제대로   ,GS칼텍스,051-868-0920,Y,0,1659,1789,0,35.1687554,129.0672126
547,부산광역시,지에스칼텍스㈜ 성지주유소,부산 부산진구 동평로    ,GS칼텍스,051-806-0466,Y,1915,1659,1779,1650,35.1644264,129.0317246
548,부산광역시,SK에너지(주) 연지오토self,부산 부산진구 동평로    ,SK에너지,051-805-9285,Y,1989,1669,1789,1750,35.1644264,129.0317246
549,부산광역시,명품주유소 당감점,부산 부산진구 백양대로   ,현대오일뱅크,051-891-1881,Y,1999,1679,1799,0,35.1622518,129.0499505
550,부산광역시,대흥주유소,부산 부산진구 동평로,S-OIL,051-898-5151,Y,1999,1679,1799,0,35.1644264,129.0317246
551,부산광역시,가야주유소,부산 부산진구 가야대로   번길,SK에너지,051-896-6300,Y,0,1689,1799,0,0,0
552,부산광역시,동방석유(주)황령산주유소,부산 부산진구 황령대로   ,SK에너지,051-803-5151,Y,0,1699,1829,0,35.1477483,129.0605683
553,부산광역시,동방석유(주)sk전포주유소,부산 부산진구 동천로   ,SK에너지,051-804-5152,Y,0,1749,1849,0,35.1522067,129.0623892
554,부산광역시,럭키주유소,부산 부산진구 새싹로    ,SK에너지,051-808-5113,Y,0,1768,1878,0,35.1598262,129.0574419
555,부산광역시,대명주유소,부산 부산진구 가야대로    ,S-OIL,051-896-5105,Y,0,1818,1898,1750,35.1567742,129.047986
556,부산광역시,케이제이주유소,부산 부산진구 전포대로   번길,S-OIL,051-809-5145,Y,0,1828,1949,1800,0,0
557,부산광역시,서영주유소,부산 부산진구 범일로    ,SK에너지,051-644-7053,N,0,1848,1948,0,35.1448916,129.0592973
558,부산광역시,한일주유소,부산 부산진구 백양순환로   번길   ,SK에너지,051-809-1542,Y,0,1899,1949,1735,0,0
559,부산광역시,광신석유(주)직영 범천주유소,부산 부산진구 신천대로,SK에너지,051-818-4419,Y,2199,1999,1999,1799,35.1506167,129.0578688
560,부산광역시,광신석유(주)직영 백양대로주유소,부산 북구 백양대로    ,SK에너지,051-337-3100,Y,0,1615,1765,0,35.2094926,129.0054597
561,부산광역시,경덕주유소,부산 북구 시랑로   ,알뜰주유소,051-343-2121,Y,0,1635,1776,1650,35.1958185,129.0141976
562,부산광역시,화명신도시주유소,부산 북구 금곡대로    ,알뜰주유소,051-365-0711,N,0,1658,1778,0,35.210593,129.0050961
563,부산광역시,(주)세일 금곡주유소,부산 북구 금곡대로    ,S-OIL,051-334-7771,Y,0,1659,1785,0,35.210593,129.0050961
564,부산광역시,지에스칼텍스(주)구포셀프주유소,부산 북구 사상로    ,GS칼텍스,051-338-5189,Y,0,1659,1779,0,35.198501,128.990343
565,부산광역시,은마석유(주)금곡대로주유소,부산 북구 금곡대로    ,GS칼텍스,051-365-4830,Y,0,1659,1769,0,35.210593,129.0050961
566,부산광역시,삼진셀프주유소,부산 북구 의성로  번길,SK에너지,051-342-3516,Y,0,1669,1789,0,0,0
567,부산광역시,광신석유(주)직영 덕천주유소,부산 북구 의성로   ,SK에너지,051-343-5232,Y,0,1669,1789,0,35.2097923,129.0111943
568,부산광역시,동양가스산업(주)명품주유소,부산 북구 금곡대로    ,현대오일뱅크,051-343-3003,Y,1999,1669,1789,0,35.210593,129.0050961
569,부산광역시,(주)삼보부림SELF주유소,부산 북구 만덕대로    ,GS칼텍스,051-338-5156,Y,0,1679,1799,0,35.2108562,129.008173
570,부산광역시,만복드림주유소,부산 북구 만덕대로,S-OIL,051-343-5155,Y,0,1679,1799,0,35.2108562,129.008173
571,부산광역시,북부산새마을금고주유소,부산 북구 금곡대로,현대오일뱅크,051-341-0151,Y,0,1679,1799,0,35.210593,129.0050961
572,부산광역시,삼보주유소/충전소,부산 북구 만덕대로    ,GS칼텍스,051-336-2002,Y,2039,1679,1799,1650,35.2108562,129.008173
573,부산광역시,SK에너지(주)신광셀프주유소,부산 북구 덕천로    ,SK에너지,051-336-9911,Y,0,1679,1809,0,35.2096678,129.033629
574,부산광역시,지에스칼텍스(주)라인셀프주유소,부산 북구 덕천로    ,GS칼텍스,051-338-5145,Y,0,1689,1829,0,35.2096678,129.033629
575,부산광역시,성도주유소,부산 북구 낙동대로,S-OIL,051-333-3351,N,2098,1698,1838,0,35.2096723,129.0031286
576,부산광역시,SK에너지(주)두꺼비,부산 북구 금곡대로    ,SK에너지,051-362-5555,Y,2049,1699,1809,0,35.210593,129.0050961
577,부산광역시,무지개주유소,부산 북구 금곡대로    ,현대오일뱅크,051-335-4330,N,0,1759,1849,1750,35.210593,129.0050961
578,부산광역시,우리주유소,부산 사상구 백양대로    ,알뜰주유소,051-304-3654,Y,0,1615,1765,0,35.1808784,128.9885474
579,부산광역시,세원주유소,부산 사상구 학감대로,알뜰주유소,051-328-5311,Y,0,1615,1744,1550,35.1496325,128.989533
580,부산광역시,광신석유(주)직영 가야대로주유소,부산 사상구 가야대로,SK에너지,070-4788-8153,Y,1999,1615,1744,0,35.1497185,128.9872853
581,부산광역시,서부산IC주유소,부산 사상구 학감대로,SK에너지,051-328-5189,Y,2004,1615,1744,1620,35.1496325,128.989533
582,부산광역시,용마주유소,부산 사상구 가야대로    ,알뜰주유소,051-311-3653,Y,0,1615,1744,0,35.1497185,128.9872853
583,부산광역시,스마트주유소,부산 사상구 가야대로,현대오일뱅크,051-314-5151,Y,0,1615,1744,0,35.1497185,128.9872853
584,부산광역시,엔씨네트웍스(주)직영주유소,부산 사상구 사상로,SK에너지,051-913-5151,Y,0,1624,1768,0,35.1557118,128.9909862
585,부산광역시,에스씨(주) 새문주유소,부산 사상구 학감대로   ,GS칼텍스,051-324-3502,Y,0,1624,1744,0,35.1496325,128.989533
586,부산광역시,(주)좋은기름나라새사상셀프주유소지점,부산 사상구 새벽로,S-OIL,051-328-2270,Y,0,1648,1768,1600,35.1505998,128.9818837
587,부산광역시,구룡주유소,부산 사상구 가야대로    ,현대오일뱅크,051-316-4360,Y,0,1648,1768,0,35.1497185,128.9872853
588,부산광역시,부영석유(주)도매주유소,부산 사상구 가야대로   ,GS칼텍스,051-315-1117,Y,0,1648,1768,0,35.1497185,128.9872853
589,부산광역시,광신홀딩스㈜ 직영 낙동대로주유소,부산 사상구 낙동대로    ,SK에너지,051-311-0131,Y,0,1648,1768,0,35.1656908,128.9764228
590,부산광역시,(주)덕양에너지 직영 구덕산주유소,부산 사상구 학감대로   ,SK에너지,051-323-9890,Y,0,1649,1809,0,35.1496325,128.989533
591,부산광역시,㈜덕양에너지직영 굿모닝주유소,부산 사상구 학감대로   ,SK에너지,051-323-2123,Y,0,1649,1744,0,35.1496325,128.989533
592,부산광역시,행복한셀프주유소,부산 사상구 학감대로   ,현대오일뱅크,051-327-7547,Y,0,1649,1759,0,35.1496325,128.989533
593,부산광역시,아산주유소,부산 사상구 새벽로  ,S-OIL,051-312-0051,Y,1997,1657,1777,1650,35.1505998,128.9818837
594,부산광역시,(주)부영에너지,부산 사상구 낙동대로    ,SK에너지,051-317-0296,Y,0,1658,1778,0,35.1656908,128.9764228
595,부산광역시,현대오일뱅크 감전주유소,부산 사상구 낙동대로    ,현대오일뱅크,051-315-6362,N,0,1659,1799,1577,35.1656908,128.9764228
596,부산광역시,(주)유창주유소,부산 사상구 낙동대로    ,자가상표,051-328-4422,N,0,1668,1778,2000,35.1656908,128.9764228
597,부산광역시,한라주유소,부산 사상구 학장로    ,SK에너지,051-326-9398,Y,0,1677,1797,1650,35.1329106,128.9721778
598,부산광역시,(주)호림에너지 호림주유소,부산 사상구 낙동대로    ,현대오일뱅크,051-317-5187,N,0,1678,1798,1600,35.1656908,128.9764228
599,부산광역시,가락타운주유소,부산 사상구 낙동대로    ,SK에너지,051-325-1200,Y,0,1678,1798,0,35.1656908,128.9764228
600,부산광역시,현대오일뱅크㈜직영 낙동로주유소,부산 사상구 낙동대로     ,현대오일뱅크,051-305-9558,N,1957,1679,1825,0,35.1656908,128.9764228
601,부산광역시,삼주유소,부산 사상구 백양대로    ,현대오일뱅크,051-791-2847,Y,0,1697,1849,0,35.1808784,128.9885474
602,부산광역시,(주)지엠지 우경주유소,부산 사상구 백양대로    ,S-OIL,051-312-0951,Y,1997,1697,1797,0,35.1808784,128.9885474
603,부산광역시,흥일주유소 주식회사,부산 사상구 낙동대로     ,GS칼텍스,051-302-6244,N,0,1698,1798,1600,35.1656908,128.9764228
604,부산광역시,(주)성은에너지 자이언트 주유소,부산 사상구 강변대로    ,GS칼텍스,051-315-4027,Y,0,1698,1818,0,35.1652862,128.9756264
605,부산광역시,산업주유소,부산 사상구 낙동대로    ,SK에너지,051-311-4305,Y,0,1698,1818,1600,35.1656908,128.9764228
606,부산광역시,㈜제이와이비젼 명성주유소,부산 사상구 학감대로    ,GS칼텍스,051-324-5085,Y,0,1698,1808,1600,35.1496325,128.989533
607,부산광역시,(주)동일주유소,부산 사상구 사상로,자가상표,051-303-9972,Y,0,1700,1709,1600,35.1557118,128.9909862
608,부산광역시,(주)성은에너지 제3주유소,부산 사상구 강변대로    ,SK에너지,051-323-4027,Y,0,1708,1828,0,35.1652862,128.9756264
609,부산광역시,지에스칼텍스(주)대풍주유소,부산 사상구 가야대로   ,GS칼텍스,051-315-4124,Y,1924,1709,1862,1650,35.1497185,128.9872853
610,부산광역시,농산물주유소,부산광역시 사상구  농산물시장로  번길   ,SK에너지,051-327-5145,N,0,1718,1848,0,0,0
611,부산광역시,새동창주유소,부산 사상구 낙동대로    ,SK에너지,051-324-1117,N,0,1718,1828,0,35.1656908,128.9764228
612,부산광역시,경동주유소,부산 사상구 백양대로    ,현대오일뱅크,051-311-6114,Y,0,1719,1849,1600,35.1808784,128.9885474
613,부산광역시,지에스칼텍스(주)서부주유소,부산 사상구 낙동대로     ,GS칼텍스,051-304-8873,Y,1958,1724,1862,1650,35.1656908,128.9764228
614,부산광역시,중앙주유소,부산 사상구 낙동대로     ,현대오일뱅크,051-305-0629,N,0,1728,1828,1650,35.1656908,128.9764228
615,부산광역시,대흥오일뱅크주유소,부산 사상구 새벽로,현대오일뱅크,051-312-2526,N,0,1748,1878,1660,35.1505998,128.9818837
616,부산광역시,대림주유소,부산 사상구 낙동대로,S-OIL,051-302-1577,Y,0,1749,1849,1650,35.1656908,128.9764228
617,부산광역시,성경주유소,부산 사상구 모덕로   ,SK에너지,051-304-5100,N,0,1768,1868,1650,35.1814125,128.9892058
618,부산광역시,보훈주유소,부산 사상구 백양대로    ,SK에너지,051-325-4281,N,0,1798,1878,0,35.1808784,128.9885474
619,부산광역시,아시아사상주유소,부산 사상구 새벽로    ,SK에너지,051-321-1445,N,0,1897,1997,1800,35.1505998,128.9818837
620,부산광역시,건영주유소,부산 사상구 가야대로   ,SK에너지,051-328-5181,N,0,1898,1998,0,35.1497185,128.9872853
621,부산광역시,광신홀딩스㈜ 직영 감전주유소,부산 사상구 낙동대로     ,SK에너지,051-328-6402,Y,0,1999,2099,0,35.1656908,128.9764228
622,부산광역시,에스씨(주) 감천주유소,부산 사하구 감천로   ,GS칼텍스,051-291-9700,Y,0,1659,1765,1650,35.0909952,128.9968547
623,부산광역시,대양석유(주) SK괴정주유소,부산광역시 사하구  사하로,SK에너지,051-206-7446,Y,0,1659,1765,0,35.09201,128.99326
624,부산광역시,퍼시픽에너지(주),부산 사하구 다대로    ,알뜰주유소,051-313-5182,Y,0,1659,1765,0,35.0879346,128.9776678
625,부산광역시,광신홀딩스㈜ 직영 을숙도대로주유소,부산 사하구 을숙도대로    ,SK에너지,051-205-8800,Y,0,1659,1765,0,35.0856105,128.9561585
626,부산광역시,오케이주유소,부산 사하구 사하로    ,S-OIL,051-293-7601,Y,0,1659,1765,0,35.09201,128.99326
627,부산광역시,장림대흥주유소,부산 사하구 다대로    ,SK에너지,051-262-5189,Y,1923,1659,1765,0,35.0879346,128.9776678
628,부산광역시,지에스칼텍스㈜ 동아주유소,부산 사하구 낙동대로    ,GS칼텍스,051-206-2351,Y,1893,1659,1799,0,35.1061263,128.9685214
629,부산광역시,송림주유소,부산 사하구 장평로    ,GS칼텍스,051-262-0072,Y,0,1659,1798,0,35.0875101,128.9729183
630,부산광역시,SK에너지(주)국영,부산 사하구 장림번영로  ,SK에너지,051-262-8866,Y,0,1659,1799,1700,35.0817398,128.9667076
631,부산광역시,지에스칼텍스(주)다대주유소,부산 사하구 다대로    ,GS칼텍스,051-265-5131,Y,1903,1659,1799,0,35.0879346,128.9776678
632,부산광역시,토성셀프주유소,부산 사하구 다대로    ,SK에너지,051-261-5145,Y,0,1659,1765,1650,35.0879346,128.9776678
633,부산광역시,새마당주유소,부산 사하구 장평로    ,알뜰주유소,070-4062-2345,Y,0,1659,1765,1600,35.0875101,128.9729183
634,부산광역시,부영석유 도매주유소,부산 사하구 을숙도대로,GS칼텍스,051-202-7333,Y,0,1659,1765,0,35.0856105,128.9561585
635,부산광역시,현대오일뱅크㈜직영 괴정제일셀프주유소,부산 사하구 낙동대로,현대오일뱅크,051-292-0091,Y,0,1659,1799,1599,35.1061263,128.9685214
636,부산광역시,선경주유소,부산 사하구 을숙도대로,S-OIL,051-266-5130,Y,2097,1664,1795,0,35.0856105,128.9561585
637,부산광역시,153주유소,부산 사하구 을숙도대로,현대오일뱅크,051-262-0153,Y,0,1676,1784,0,35.0856105,128.9561585
638,부산광역시,신평주유소,부산 사하구 하신중앙로    ,SK에너지,051-203-4277,N,2058,1677,1807,1650,35.1048176,128.9655508
639,부산광역시,극동유화(주) 부산주유소,부산 사하구 하신중앙로    ,S-OIL,051-293-5451,Y,0,1677,1807,0,35.1048176,128.9655508
640,부산광역시,(주)천일에너지 대진주유소,부산 사하구 낙동대로,현대오일뱅크,051-206-6489,Y,0,1677,1797,0,35.1061263,128.9685214
641,부산광역시,남성주유소,부산 사하구 하신중앙로    ,현대오일뱅크,051-205-4631,Y,0,1677,1797,1600,35.1048176,128.9655508
642,부산광역시,한국오일뱅주유소,부산 사하구 다대로    ,S-OIL,051-265-5050,Y,0,1685,1790,1630,35.0879346,128.9776678
643,부산광역시,CJ대한통운㈜ 장평주유소,부산 사하구 을숙도대로    ,S-OIL,051-292-5186,N,0,1695,1845,0,35.0856105,128.9561585
644,부산광역시,대창제1주유소,부산 사하구 을숙도대로    ,SK에너지,051-266-7788,Y,0,1699,1799,0,35.0856105,128.9561585
645,부산광역시,조은셀프주유소,부산 사하구 낙동대로    ,S-OIL,051-291-5189,Y,0,1699,1829,0,35.1061263,128.9685214
646,부산광역시,동원주유소(주),부산 사하구 감천항로    ,자가상표,051-261-4448,Y,0,1725,1845,0,35.0731932,128.990583
647,부산광역시,사하주유소,부산 사하구 을숙도대로,GS칼텍스,051-202-5175,N,0,1725,1815,0,35.0856105,128.9561585
648,부산광역시,장림주유소,부산 사하구 장림로    ,현대오일뱅크,051-261-3773,Y,0,1738,1798,0,35.0836593,128.9790619
649,부산광역시,대호주유소,부산 사하구 하신중앙로   ,S-OIL,051-204-8200,N,0,1798,1898,1750,35.1048176,128.9655508
650,부산광역시,대경주유소,부산 사하구 감천항로   ,S-OIL,051-262-8494,N,0,1949,1959,0,35.0731932,128.990583
651,부산광역시,광신석유(주)직영 구평주유소,부산 사하구 서포로,SK에너지,051-265-6004,Y,0,1999,2099,1799,35.0830844,128.9863547
652,부산광역시,(주)디시에너지 운동장,부산광역시 서구  보수대로    ,현대오일뱅크,051-243-0444,Y,0,1639,1769,1600,35.1133008,129.0206709
653,부산광역시,(주)디시에너지 대신지점,부산 서구 대영로,현대오일뱅크,051-242-8144,Y,0,1659,1799,0,35.1112426,129.0212526
654,부산광역시,동방석유(주)직영 모든주유소,부산 서구 감천로    ,SK에너지,051-244-5151,Y,0,1659,1795,1721,35.0788362,129.0182091
655,부산광역시,극동유화(주) 고려주유소대신,부산 서구 대영로   ,S-OIL,051-248-7555,Y,0,1675,1805,1650,35.1112426,129.0212526
656,부산광역시,극동유화(주) 우양냉장주유소,부산 서구 충무대로    ,S-OIL,051-256-1070,Y,1899,1678,1808,1650,35.0787092,129.0201513
657,부산광역시,지에스칼텍스㈜ 대성주유소,부산 서구 충무대로    ,GS칼텍스,051-257-2601,Y,1918,1699,1819,0,35.0787092,129.0201513
658,부산광역시,남항대교주유소,부산 서구 충무대로    ,SK에너지,051-231-5145,Y,0,1699,1819,1650,35.0787092,129.0201513
659,부산광역시,남부주유소 (송도아랫길),부산 서구 충무대로    ,GS칼텍스,051-255-9528,N,0,1728,1848,1650,35.0787092,129.0201513
660,부산광역시,스타2 주유소,부산 서구 원양로    ,GS칼텍스,051-243-6661,N,0,1735,1765,0,35.06222,129.0129
661,부산광역시,(주)부영에너지직영신일주유소,부산 서구 구덕로    ,SK에너지,051-256-3929,Y,0,1798,1899,0,35.1095129,129.0182048
662,부산광역시,지에스칼텍스(주)부산주유소,부산 수영구 수영로    ,GS칼텍스,051-753-0569,Y,1888,1659,1779,0,35.1473513,129.1103099
663,부산광역시,(주)세왕에너지 세진주유소,부산 수영구 광남로    ,SK에너지,051-755-8188,Y,0,1665,1785,0,35.1439043,129.1097052
664,부산광역시,광안리주유소,부산 수영구 광남로,S-OIL,051-754-9799,Y,1815,1665,1785,0,35.1439043,129.1097052
665,부산광역시,마린타이거주유소,부산 수영구 광남로    ,GS칼텍스,051-756-0903,N,0,1665,1785,0,35.1439043,129.1097052
666,부산광역시,지에스칼텍스(주) 언덕주유소,부산 수영구 연수로,GS칼텍스,051-757-6100,Y,1903,1669,1779,1650,35.16963,129.11194
667,부산광역시,대양산업(주)대영주유소,부산 수영구 수영로,GS칼텍스,051-753-0360,Y,0,1674,1824,1750,35.1473513,129.1103099
668,부산광역시,센텀타이거주유소,부산 수영구 민락본동로,알뜰주유소,051-751-2281,Y,0,1679,1799,0,35.1580775,129.1286735
669,부산광역시,신영주유소,부산 수영구 과정로   ,SK에너지,051-756-4518,N,0,1689,1799,0,35.1717695,129.1092527
670,부산광역시,인성주유소,부산 수영구 연수로    ,현대오일뱅크,051-752-9475,Y,0,1695,1765,0,35.16963,129.11194
671,부산광역시,땡큐망미주유소,부산 수영구  연수로    ,S-OIL,051-752-6056,Y,0,1697,1807,0,35.16963,129.11194
672,부산광역시,SK에너지(주)강일주유소,부산 수영구 연수로,SK에너지,051-752-6371,Y,0,1719,1829,0,35.16963,129.11194
673,부산광역시,금련산주유소,부산 수영구 수영로    ,S-OIL,051-621-5189,N,1965,1735,1865,1700,35.1473513,129.1103099
674,부산광역시,(주)호유주유소,부산 수영구 좌수영로    ,GS칼텍스,051-757-8806,Y,2038,1838,1938,0,35.1658757,129.1250486
675,부산광역시,(주)청유주유소,부산 수영구 좌수영로    ,SK에너지,051-757-8806,Y,2048,1848,1948,0,35.1658757,129.1250486
676,부산광역시,금호주유소,부산 수영구 과정로    ,SK에너지,051-756-3792,N,0,1848,1898,1750,35.1717695,129.1092527
677,부산광역시,에너지드림셀프주유소,부산 연제구 반송로   ,알뜰주유소,051-868-5252,Y,0,1635,1765,0,35.189107,129.0856044
678,부산광역시,성학주유소,부산 연제구 월드컵대로    ,알뜰주유소,051-505-7090,N,0,1658,1798,0,35.1874094,129.0562345
679,부산광역시,현대오일뱅크(주)직영 부산현대주유소,부산 연제구 아시아드대로    ,현대오일뱅크,051-502-9131,N,2093,1659,1799,0,35.1868948,129.0697168
680,부산광역시,(주)좋은기름나라연산주유소지점,부산 연제구 고분로   ,S-OIL,051-851-5199,Y,0,1659,1789,0,35.1844515,129.111327
681,부산광역시,은마석유(주)아시아드주유소,부산 연제구  거제대로    ,GS칼텍스,051-852-4144,Y,1980,1659,1789,0,35.1881146,129.0734171
682,부산광역시,광동페트로㈜ 감사드림주유소,부산 연제구 거제대로,현대오일뱅크,051-851-0976,Y,0,1659,1789,0,35.1881146,129.0734171
683,부산광역시,현대오일뱅크㈜직영 연산셀프주유소,부산 연제구 중앙대로     ,현대오일뱅크,051-867-6741,Y,1962,1659,1789,0,35.1976457,129.0792212
684,부산광역시,신한양주유소,부산 연제구 연안로   ,SK에너지,051-758-5351,Y,0,1670,1795,0,35.1890446,129.1071701
685,부산광역시,영웅주유소,부산 연제구 온천천남로   ,현대오일뱅크,051-759-5776,N,0,1675,1799,0,35.1910652,129.1003744
686,부산광역시,SK에너지(주)부흥셀프주유소,부산 연제구 과정로    ,SK에너지,051-759-5182,Y,0,1699,1819,0,35.1861736,129.1071537
687,부산광역시,광신홀딩스㈜ 직영 토곡주유소,부산 연제구 과정로,SK에너지,051-759-3802,Y,0,1699,1799,1799,35.1861736,129.1071537
688,부산광역시,자이주유소,부산 연제구 과정로    ,GS칼텍스,051-864-4244,Y,2350,1729,1829,0,35.1861736,129.1071537
689,부산광역시,태광주유소 (현대),부산 연제구 연수로   ,현대오일뱅크,051-851-4400,N,0,1768,1878,1750,35.1752368,129.0820875
690,부산광역시,연제주유소,부산 연제구 연수로,S-OIL,051-636-4356,N,0,1778,1878,1750,35.1752368,129.0820875
691,부산광역시,금천주유소,부산 연제구 과정로    ,S-OIL,051-759-9393,Y,0,1899,1999,0,35.1861736,129.1071537
692,부산광역시,SK에너지(주)직영 태종로주유소,부산 영도구 태종로    ,SK에너지,051-412-5155,Y,0,1778,1878,1700,35.0927888,129.0447117
693,부산광역시,태종대온천주유소,부산 영도구 태종로      ,SK에너지,051-405-2530,N,0,1797,1897,1650,35.0927888,129.0447117
694,부산광역시,태종에너지청학주유소,부산 영도구 태종로    ,SK에너지,051-414-7279,Y,0,1798,1898,1700,35.0927888,129.0447117
695,부산광역시,세기상사㈜ 대성주유소,부산 영도구 해양로    ,S-OIL,051-412-5189,N,0,1798,1898,1690,35.0992929,129.0580925
696,부산광역시,동현주유소,부산 영도구 해양로,SK에너지,051-405-5170,N,0,1798,1898,1690,35.0992929,129.0580925
697,부산광역시,해양특구주유소,부산 영도구 해양로,GS칼텍스,051-404-5189,Y,0,1798,1898,0,35.0992929,129.0580925
698,부산광역시,영선주유소,부산 영도구 영선대로   ,현대오일뱅크,051-418-0042,N,0,1799,1899,1650,35.0842475,129.0402978
699,부산광역시,동방주유소,부산 영도구 남항서로,S-OIL,051-416-6108,N,0,1928,1978,0,35.0821519,129.0386632
700,부산광역시,남항주유소,부산 영도구 남항서로,SK에너지,051-416-0904,N,0,1948,1998,1700,35.0821519,129.0386632
701,부산광역시,(주)나부코직영 우원주유소,부산 영도구 태종로    ,SK에너지,051-418-7600,N,0,1958,2028,1700,35.0927888,129.0447117
702,부산광역시,(주)오일석유 제일주유소,부산 중구 중구로    ,GS칼텍스,051-469-3124,Y,0,1665,1775,1650,35.1001898,129.0278452
703,부산광역시,고려주유소,부산 중구 대청로    ,SK에너지,051-469-1288,N,0,1745,1895,1650,35.1029535,129.0367737
704,서울특별시,현대오일뱅크(주)직영 문성골주유소,서울 관악구 문성로   ,현대오일뱅크,02-839-0081,N,0,1684,1844,1700,37.4789949,126.9252947
705,서울특별시,(주)연우에너지 신관주유소,서울 관악구 신림로    ,알뜰주유소,02-871-1356,Y,0,1695,1855,0,37.4841114,126.9296625
706,서울특별시,(주)엠오티이엔지 직영 삼화주유소,서울 관악구 보라매로,현대오일뱅크,02-889-8929,N,0,1729,1879,0,37.4934032,126.9269588
707,서울특별시,현대오일뱅크(주)직영 관악셀프주유소,서울 관악구 남부순환로     ,현대오일뱅크,02-867-1877,Y,2169,1739,1879,0,37.4841034,126.9281321
708,서울특별시,현대주유소,서울 관악구 난곡로    ,현대오일뱅크,02-851-9200,N,0,1744,1884,0,37.4683824,126.9200519
709,서울특별시,서일석유(주)락성주유소,서울 관악구 남부순환로     ,GS칼텍스,02-877-0867,Y,1899,1759,1887,1700,37.4841034,126.9281321
710,서울특별시,SK에너지(주)직영 대공원주유소,서울 관악구 과천대로    ,SK에너지,02-584-2522,N,1899,1759,1889,0,37.4763265,126.9815299
711,서울특별시,SK에너지(주) 신봉천,서울 관악구 남부순환로     ,SK에너지,02-885-5189,N,1899,1759,1889,1700,37.4841034,126.9281321
712,서울특별시,지에스칼텍스㈜ 난곡주유소,서울 관악구 난곡로,GS칼텍스,02-858-2003,N,0,1766,1883,0,37.4683824,126.9200519
713,서울특별시,유림주유소,서울 관악구 신림로    ,S-OIL,02-887-5145,N,0,1778,1898,1498,37.4841114,126.9296625
714,서울특별시,대양석유(주)직영 보라매주유소,서울 관악구  보라매로   ,SK에너지,02-882-5189,Y,0,1791,1869,0,37.4934032,126.9269588
715,서울특별시,(주)한유에너지행운셀프주유소,서울 관악구 남부순환로     ,SK에너지,02-871-5189,Y,2247,1829,1967,0,37.4841034,126.9281321
716,서울특별시,관악시몬주유소,서울특별시 관악구 남부순환로     ,S-OIL,02-874-5185,N,0,1846,1936,0,37.4841034,126.9281321
717,서울특별시,CJ대한통운㈜ 신림주유소,서울 관악구 남부순환로     ,GS칼텍스,02-2632-8612,N,0,1858,1978,0,37.4841034,126.9281321
718,부산광역시,한양 브라보주유소,부산 해운대구 해운대로     ,알뜰주유소,051-703-5451,N,0,1585,1742,0,35.160755,129.1492178
719,부산광역시,오시리아주유소,부산 해운대구 해운대로     ,현대오일뱅크,051-703-5025,Y,1978,1587,1707,0,35.160755,129.1492178
720,부산광역시,(주)세일 송정역주유소,부산 해운대구 해운대로,S-OIL,051-717-3070,Y,0,1587,1798,0,35.160755,129.1492178
721,부산광역시,은마석유(주)삼양주유소,부산 해운대구 해운대로     ,GS칼텍스,051-704-5149,Y,1978,1587,1707,0,35.160755,129.1492178
722,부산광역시,㈜대운이엔지,부산 해운대구 해운대로,현대오일뱅크,051-702-7293,Y,0,1590,1739,0,35.160755,129.1492178
723,부산광역시,㈜대운이엔지 유선주유소,부산 해운대구 해운대로,S-OIL,051-704-0980,Y,0,1599,1710,0,35.160755,129.1492178
724,부산광역시,대양산업(주)동화주유소,부산 해운대구 해운대로    ,GS칼텍스,051-781-4400,Y,1924,1614,1749,1700,35.160755,129.1492178
725,부산광역시,현대오일뱅크㈜직영 센텀셀프주유소,부산 해운대구 해운대로    ,현대오일뱅크,051-784-0293,Y,2094,1654,1779,0,35.160755,129.1492178
726,부산광역시,SK에너지(주) 송정셀프주유소,부산 해운대구 해운대로     ,SK에너지,051-704-0011,Y,0,1669,1779,0,35.160755,129.1492178
727,부산광역시,현대오일뱅크(주)직영 장산IC주유소,부산 해운대구 양운로    ,현대오일뱅크,051-704-5189,N,2094,1669,1829,0,35.1765456,129.1705808
728,부산광역시,(주)세일 구도일주유소센텀시티,부산 해운대구 해운대로    ,S-OIL,051-742-0882,Y,1968,1678,1798,0,35.160755,129.1492178
729,부산광역시,반송파크주유소,부산 해운대구 석대천로,현대오일뱅크,051-545-5151,N,0,1678,1898,0,35.2176456,129.1353035
730,부산광역시,동양가스(주) 명품주유소반송점,부산 해운대구 반송로    ,현대오일뱅크,051-522-2590,Y,0,1679,1799,1650,35.2257257,129.1462026
731,부산광역시,반송스마일주유소,부산 해운대구 반송로    ,현대오일뱅크,051-545-2741,Y,0,1679,1799,1600,35.2257257,129.1462026
732,부산광역시,신촌셀프주유소,부산 해운대구 반여로    ,S-OIL,051-523-5151,Y,1967,1679,1799,0,35.1950255,129.1200458
733,부산광역시,동해주유소,부산 해운대구 재반로    ,SK에너지,051-783-8660,Y,0,1679,1799,1800,35.1824932,129.1265393
734,부산광역시,동부산셀프주유소,부산 해운대구 반송로    ,GS칼텍스,051-543-1273,Y,1919,1679,1799,0,35.2257257,129.1462026
735,부산광역시,양천석유(주)덕진셀프주유소반송점,부산 해운대구 반송로,SK에너지,051-531-5151,Y,0,1679,1799,0,35.2257257,129.1462026
736,부산광역시,SK에너지(주) 마리나주유소,부산 해운대구 해운대로    ,SK에너지,051-747-5181,Y,1989,1689,1829,0,35.160755,129.1492178
737,부산광역시,지에스칼텍스(주)광안대로주유소,부산 해운대구 수영강변대로,GS칼텍스,051-521-1436,Y,1909,1689,1809,0,35.1753556,129.1216738
738,부산광역시,SK에너지(주)신도시주유소,부산 해운대구 대천로   ,SK에너지,051-747-5182,Y,1989,1689,1829,0,35.1713682,129.1770293
739,부산광역시,(주)조은하루주유소,부산 해운대구 해운대로    ,S-OIL,051-741-5189,Y,0,1689,1814,0,35.160755,129.1492178
740,부산광역시,㈜은성석유 반송제일주유소,부산 해운대구 반송로    ,S-OIL,051-531-3885,Y,0,1689,1809,0,35.2257257,129.1462026
741,부산광역시,지에스칼텍스(주)해운주유소,부산 해운대구 해운대로    ,GS칼텍스,051-744-0185,Y,1958,1694,1819,1650,35.160755,129.1492178
742,부산광역시,광신석유(주)직영 수영강변대로주유소,부산 해운대구 수영강변대로,SK에너지,051-529-1100,Y,2199,1699,1799,1799,35.1753556,129.1216738
743,부산광역시,sc(주)센텀주유소,부산광역시 해운대구  수영강변대로    ,GS칼텍스,051-527-4144,Y,0,1699,1799,0,35.1753556,129.1216738
744,부산광역시,해변주유소,부산 해운대구 해운대로    ,SK에너지,051-363-9633,Y,0,1729,1839,0,35.160755,129.1492178
745,부산광역시,SK에너지(주)직영 해운대센텀주유소,부산 해운대구 수영강변대로,SK에너지,051-784-2999,Y,0,1729,1829,0,35.1753556,129.1216738
746,부산광역시,지에스칼텍스(주)해운대중동주유소,부산 해운대구 좌동로   ,GS칼텍스,051-731-5712,Y,1949,1734,1884,1650,35.1732049,129.1767985
747,부산광역시,SK에너지(주) 돌고래주유소,부산 해운대구 해운대로   번길,SK에너지,051-747-5190,N,1989,1739,1849,0,0,0
748,부산광역시,해운대주유소,부산 해운대구 좌동순환로,S-OIL,051-747-2526,Y,0,1759,1859,0,35.17507,129.17988
749,부산광역시,(주)이엠석유 대흥주유소,부산 해운대구 좌동순환로    ,GS칼텍스,051-731-3675,Y,1989,1759,1859,1650,35.17507,129.17988
750,부산광역시,(주)대양씨앤씨 달맞이주유소,부산 해운대구 달맞이길   ,GS칼텍스,051-747-8481,Y,1999,1759,1859,0,35.1791995,129.1952416
751,부산광역시,에스씨(주) 마리나타운주유소,부산 해운대구 해운대해변로   ,GS칼텍스,051-741-7030,N,2249,1809,1948,0,35.1602082,129.1426692
752,대구광역시,신명주유소,대구 남구 대명로    ,알뜰주유소,053-623-6767,Y,0,1600,1740,0,35.8402063,128.5799266
753,대구광역시,미니주유소,대구 남구 중앙대로  길,현대오일뱅크,010-3001-9882,N,0,1600,1740,0,0,0
754,대구광역시,그린에너지 직영주유소,대구 남구 대명로    ,GS칼텍스,053-652-6001,Y,0,1600,1760,1600,35.8402063,128.5799266
755,대구광역시,우리셀프주유소,대구 남구 성당로    ,S-OIL,053-654-6630,Y,0,1604,1749,0,35.8425993,128.5613922
756,대구광역시,SK성당주유소,대구 남구 성당로,SK에너지,053-219-6200,N,0,1629,1775,0,35.8425993,128.5613922
757,대구광역시,(주)한국에너지,대구 남구 두류공원로,알뜰주유소,053-657-2712,N,0,1669,1799,0,35.842484,128.5717265
758,대구광역시,이칠주유소,대구 남구 중앙대로    ,SK에너지,053-656-4427,Y,0,1675,1739,0,35.8449144,128.5904568
759,대구광역시,신대봉주유소,대구 남구 대봉로    ,SK에너지,053-474-2936,N,0,1683,1799,1650,35.8411457,128.6043082
760,대구광역시,도촌주유소,대구 남구 두류공원로   ,S-OIL,053-655-2222,N,0,1684,1804,1700,35.842484,128.5717265
761,대구광역시,남양주유소,대구 남구 봉덕로,SK에너지,053-474-6060,N,0,1684,1814,0,0,0
762,대구광역시,한마음주유소,대구 남구 대명남로   ,SK에너지,053-653-5145,Y,0,1689,1829,0,35.83491,128.5687085
763,대구광역시,삼성주유소,대구 남구 대봉로,SK에너지,053-473-8251,N,0,1695,1805,1650,35.8411457,128.6043082
764,대구광역시,평화주유소,대구 남구 이천로   ,S-OIL,053-472-6600,Y,1998,1698,1819,1700,35.8504585,128.5985426
765,대구광역시,(셀프)엘지주유소,대구 남구 앞산순환로,GS칼텍스,053-651-1124,Y,2220,1699,1863,0,35.8331264,128.5850303
766,대구광역시,도원주유소,대구 남구 명덕로    ,S-OIL,053-624-6601,Y,1999,1709,1829,0,35.8566001,128.5941331
767,대구광역시,글로벌주유소,대구 남구 두류공원로   ,S-OIL,053-651-6400,Y,2179,1719,1879,1700,35.842484,128.5717265
768,대구광역시,영남이공대앞주유소,대구 남구 현충로,SK에너지,053-655-1151,N,0,1738,1858,1700,35.8408999,128.5813317
769,대구광역시,대곡알뜰주유소,대구 달서구 명천로,알뜰주유소,053-634-5180,Y,0,1598,1754,1550,35.8081029,128.5128553
770,대구광역시,에버그린주유소,대구 달서구 새방로   ,S-OIL,053-573-5656,Y,0,1610,1765,0,35.8647874,128.5262227
771,대구광역시,하나로Ⅱ 주유소,대구 달서구 비슬로     ,S-OIL,053-633-3330,Y,0,1619,1759,1560,35.8108009,128.5156378
772,대구광역시,동양주유소,대구 달서구 월곡로,SK에너지,053-641-5885,Y,2084,1624,1764,0,35.8200861,128.5364762
773,대구광역시,해원주유소,대구 달서구  구마로   ,SK에너지,053-521-8704,N,0,1624,1763,0,35.8372531,128.5467398
774,대구광역시,아토주유소,대구 달서구 구마로   ,S-OIL,053-526-6688,Y,0,1625,1765,0,35.8372531,128.5467398
775,대구광역시,덕영에너지송현주유소,대구 달서구 구마로    ,현대오일뱅크,053-623-1329,Y,2085,1625,1765,0,35.8372531,128.5467398
776,대구광역시,본리동주유소,대구 달서구 구마로    ,GS칼텍스,053-558-5534,N,0,1625,1765,0,35.8372531,128.5467398
777,대구광역시,본동문화주유소,대구 달서구 와룡로,알뜰주유소,053-527-5011,Y,0,1625,1765,0,35.8542967,128.5373379
778,대구광역시,아토제2주유소,대구 달서구 성서공단로,현대오일뱅크,053-593-8231,N,0,1628,1768,0,35.8366294,128.5207771
779,대구광역시,아리랑주유소,대구 달서구 달서대로    ,GS칼텍스,053-583-5151,Y,2088,1634,1774,0,35.8178831,128.5036338
780,대구광역시,동승셀프주유소,대구 달서구 구마로,S-OIL,053-522-1133,Y,0,1635,1775,0,35.8372531,128.5467398
781,대구광역시,동마 제1주유소,대구 달서구 달구벌대로     ,알뜰주유소,053-586-8868,Y,0,1635,1775,0,35.8585752,128.5599312
782,대구광역시,국가대표주유소,대구 달서구 당산로,SK에너지,053-626-8778,Y,0,1635,1765,1600,35.8519808,128.5478786
783,대구광역시,해뜨는주유소,대구 달서구 달서대로   ,SK에너지,053-642-5104,Y,0,1635,1765,0,35.8178831,128.5036338
784,대구광역시,극동주유소,대구 달서구 야외음악당로   ,GS칼텍스,053-625-4001,Y,0,1635,1770,1600,35.852886,128.5563537
785,대구광역시,대경주유소,대구 달서구 앞산순환로,S-OIL,053-629-9191,Y,0,1639,1775,0,35.8260616,128.5561919
786,대구광역시,석경제2주유소,대구 달서구 성서동로,S-OIL,053-585-5181,Y,1930,1639,1779,0,35.8571521,128.5154815
787,대구광역시,SK에너지(주) 삼성제일주유소,대구 달서구 달구벌대로     ,SK에너지,053-585-6051,Y,1898,1644,1779,1600,35.8585752,128.5599312
788,대구광역시,태송주유소,대구 달서구 앞산순환로    ,알뜰주유소,053-623-5309,N,0,1655,1785,0,35.8260616,128.5561919
789,대구광역시,계명주유소,대구 달서구 달구벌대로     ,S-OIL,053-585-1515,N,0,1659,1795,1600,35.8585752,128.5599312
790,대구광역시,대성산업(주)구마고속주유소,대구 달서구 구마로   ,GS칼텍스,053-521-1236,Y,0,1659,1799,1650,35.8372531,128.5467398
791,대구광역시,월성주유소,대구 달서구 송현로    ,GS칼텍스,053-629-2727,N,0,1659,1799,1600,35.8219782,128.5483252
792,대구광역시,더진솔한주유소,대구 달서구 용산로  ,현대오일뱅크,053-525-8382,N,0,1659,1788,0,35.848186,128.530687
793,대구광역시,효원주유소,대구 달서구 와룡로,S-OIL,053-527-6972,Y,0,1659,1779,1600,35.8542967,128.5373379
794,대구광역시,대성산업(주)대영대성주유소,대구 달서구 달서대로   ,GS칼텍스,053-716-7227,Y,1878,1659,1798,1600,35.8178831,128.5036338
795,대구광역시,대성산업(주)화물터미널주유소,대구 달서구 성서공단로,GS칼텍스,053-593-5182,Y,0,1659,1799,0,35.8366294,128.5207771
796,대구광역시,웰컴주유소,대구 달서구 달구벌대로     ,현대오일뱅크,053-562-4442,Y,2089,1665,1795,1650,35.8585752,128.5599312
797,대구광역시,현대오일뱅크㈜직영 공단제일주유소,대구 달서구 달서대로    ,현대오일뱅크,053-593-5180,N,0,1665,1825,1600,35.8178831,128.5036338
798,대구광역시,지에스칼텍스(주)대곡주유소,대구 달서구 상화로    ,GS칼텍스,053-639-5149,Y,1836,1666,1809,0,35.8097132,128.5371208
799,대구광역시,흥구석유(주)용산주유소,대구 달서구 평리로,GS칼텍스,053-556-5252,Y,0,1667,1797,0,35.8587886,128.5247842
800,대구광역시,지에스칼텍스(주)스타주유소,대구 달서구 상화북로,GS칼텍스,053-635-4473,Y,1847,1667,1809,1650,35.8137512,128.547017
801,대구광역시,계명성서관리공단주유소,대구 달서구 성서로  길,S-OIL,053-588-2323,Y,0,1675,1798,0,0,0
802,대구광역시,장동주유소,대구 달서구 성서동로    ,GS칼텍스,053-593-5151,N,0,1675,1795,1600,35.8571521,128.5154815
803,대구광역시,대성산업(주)대성유니드주유소,대구 달서구 와룡로    ,GS칼텍스,053-526-5151,Y,0,1677,1797,1650,35.8542967,128.5373379
804,대구광역시,SK에너지(주) 상인Self주유소,대구 달서구 월배로    ,SK에너지,053-632-6962,Y,1898,1679,1839,0,35.8105026,128.5166039
805,대구광역시,흥구석유(주) 창경주유소,대구 달서구 월배로    ,GS칼텍스,053-656-5199,Y,0,1679,1829,0,35.8105026,128.5166039
806,대구광역시,대성산업(주)대천대성주유소,대구 달서구 달서대로,GS칼텍스,053-719-2605,Y,0,1679,1798,0,35.8178831,128.5036338
807,대구광역시,흥구석유(주)장기주유소,대구 달서구 달구벌대로     ,GS칼텍스,053-584-8034,Y,2089,1685,1825,0,35.8585752,128.5599312
808,대구광역시,현대오일뱅크㈜직영 남대구IC셀프주유소,대구 달서구 성서공단로    ,현대오일뱅크,053-582-5361,Y,2035,1688,1825,0,35.8366294,128.5207771
809,대구광역시,SK에너지(주) 신세계주유소,대구 달서구 이곡공원로   ,SK에너지,053-588-5145,Y,1898,1689,1819,1600,35.85529,128.5126539
810,대구광역시,성서SK주유소,대구 달서구 성서로  길   ,SK에너지,053-588-4821,Y,0,1689,1799,0,0,0
811,대구광역시,대원주유소,대구 달서구 갈밭로,S-OIL,000-000-0000,Y,0,1695,1835,0,35.8022398,128.5307286
812,대구광역시,스마일주유소,대구 달서구 월배로  ,S-OIL,053-641-9481,N,0,1695,1855,0,35.8105026,128.5166039
813,대구광역시,신도주유소,대구 달서구 월배로   ,S-OIL,053-632-5229,N,0,1698,1858,0,35.8105026,128.5166039
814,대구광역시,대천주유소,대구 달서구 진천로    ,S-OIL,053-632-6711,N,0,1698,1798,1700,35.8160813,128.5231096
815,대구광역시,샬롬주유소,대구 달서구 달서대로   ,S-OIL,053-643-5189,N,0,1699,1868,1600,35.8178831,128.5036338
816,대구광역시,SK에너지(주) 수목원주유소,대구 달서구 상화로   ,SK에너지,053-634-8888,N,1898,1709,1839,1650,35.8097132,128.5371208
817,대구광역시,우광주유소,대구 달서구 진천로   ,SK에너지,053-642-5151,N,0,1719,1848,0,35.8160813,128.5231096
818,대구광역시,조암주유소,대구 달서구 조암로   ,현대오일뱅크,053-638-1501,N,0,1734,1848,0,35.825086,128.5269945
819,대구광역시,구상주유소,대구 달서구 성서 차첨단로    ,GS칼텍스,053-586-5182,N,0,1738,1858,1600,0,0
820,대구광역시,한국주유소,대구 달서구 와룡로,S-OIL,053-554-5149,N,0,1759,1869,0,35.8542967,128.5373379
821,대구광역시,명종주유소,대구 달서구 월곡로      ,GS칼텍스,053-636-2222,N,0,1769,1899,0,35.8200861,128.5364762
822,대구광역시,고려제일주유소,대구 달서구 성서공단로  길  ,현대오일뱅크,053-582-5215,N,0,1769,1879,0,0,0
823,대구광역시,성서주유소,대구 달서구 달구벌대로     ,GS칼텍스,053-581-1034,N,2095,1797,1898,1650,35.8585752,128.5599312
824,대구광역시,고려제2주유소,대구 달서구 와룡로    ,GS칼텍스,053-561-9928,N,0,1798,1898,1650,35.8542967,128.5373379
825,대구광역시,구마선Self오일뱅크,대구 달서구  월배로    ,현대오일뱅크,053-632-1100,Y,0,1799,1899,0,35.8105026,128.5166039
826,대구광역시,대림공단주유소,대구 달서구 달서대로    ,GS칼텍스,053-581-8668,N,2099,1799,1919,0,35.8178831,128.5036338
827,대구광역시,(주)미니E주유소,대구 달성군 다사읍 서재로  길  ,알뜰주유소,010-9230-3972,Y,0,1590,1748,0,0,0
828,대구광역시,보성주유소,대구 달성군 논공읍 비슬로,알뜰주유소,053-616-9000,Y,0,1595,1749,1600,35.7555631,128.399532
829,대구광역시,구름주유소,대구 달성군 가창면 가창로,S-OIL,053-768-2939,Y,0,1595,1765,0,35.7691196,128.6482893
830,대구광역시,아신주유소,대구 달성군 화원읍 비슬로,SK에너지,053-632-2333,Y,0,1599,1755,0,35.8060263,128.5055408
831,대구광역시,화원IC주유소,대구 달성군 화원읍 비슬로,현대오일뱅크,053-631-7222,Y,0,1599,1775,0,35.8060263,128.5055408
832,대구광역시,(주)우리주유소 하나로지점,대구 달성군 화원읍 화암로,S-OIL,053-642-5182,Y,0,1599,1755,1560,35.7984948,128.5074385
833,대구광역시,냉천주유소,대구 달성군 가창면 가창로,알뜰주유소,053-767-2465,N,0,1625,1765,1600,35.7691196,128.6482893
834,대구광역시,행운주유소,대구 달성군 가창면 가창로,SK에너지,053-768-0891,Y,0,1625,1765,0,35.7691196,128.6482893
835,대구광역시,서재셀프주유소,대구 달성군 다사읍 서재로,S-OIL,053-593-1241,Y,0,1634,1787,0,35.8906282,128.5161207
836,대구광역시,용두주유소,대구 달성군 다사읍 달구벌대로,SK에너지,053-583-5199,N,0,1635,1773,1600,35.8574459,128.4519482
837,대구광역시,늘푸른주유소,대구 달성군 옥포면 비슬로,SK에너지,053-615-5181,Y,0,1635,1765,0,0,0
838,대구광역시,논공농협주유소,대구 달성군 논공읍 비슬로   길,NH-OIL,053-616-5142,Y,0,1635,1765,1650,0,0
839,대구광역시,옥포농협클린주유소,대구 달성군 옥포면 비슬로,NH-OIL,053-615-9977,N,0,1635,1765,1600,0,0
840,대구광역시,풀무원식품(주) 현풍(하)주유소,대구 달성군 현풍면 중부내륙지선고속도로,알뜰(ex),053-614-2437,Y,0,1638,1778,0,0,0
841,대구광역시,가창농협주유소,대구 달성군 가창면 가창로,NH-OIL,053-768-6507,N,0,1645,1795,1550,35.7691196,128.6482893
842,대구광역시,다사농협클린주유소,대구 달성군 다사읍 서재로,NH-OIL,053-581-7799,N,0,1645,1775,1600,35.8906282,128.5161207
843,대구광역시,지에스칼텍스㈜ 유천IC주유소,대구광역시 달성군 화원읍 성천로,GS칼텍스,053-631-6886,Y,1819,1649,1749,0,35.8085713,128.498012
844,대구광역시,아리랑제2주유소,대구 달성군 다사읍 서재본길,SK에너지,053-587-5151,Y,0,1649,1784,0,35.8729173,128.4918373
845,대구광역시,논공현대주유소,대구 달성군 논공읍 비슬로,현대오일뱅크,053-616-5600,N,0,1649,1799,1650,35.7555631,128.399532
846,대구광역시,한국도로공사 현풍(대구)주유소/충전소,대구 달성군 현풍면 비슬로,알뜰(ex),053-614-2508,Y,0,1653,1787,0,0,0
847,대구광역시,부성주유소,대구 달성군 옥포면 비슬로,S-OIL,053-615-7722,N,1905,1655,1775,1700,0,0
848,대구광역시,옥포고속주유소,대구 달성군 비슬로,현대오일뱅크,053-614-7855,N,0,1655,1785,1600,35.6417939,128.4516207
849,대구광역시,용연사주유소,대구 달성군 옥포면 옥포로,SK에너지,053-616-8181,Y,0,1658,1778,1550,0,0
850,대구광역시,우리주유소,대구 달성군 화원읍 성화로,S-OIL,053-631-9708,N,0,1659,1779,1650,35.7989281,128.4842225
851,대구광역시,쌍용옥포주유소,대구 달성군 옥포면 옥포로,S-OIL,053-615-8808,N,0,1659,1779,0,0,0
852,대구광역시,화원농협주유소,대구 달성군 화원읍 사문진로,SK에너지,053-635-9340,N,0,1665,1765,1570,35.8075376,128.4886264
853,대구광역시,세명공단주유소,대구 달성군 다사읍 세천로  길,현대오일뱅크,053-582-6400,N,0,1665,1785,0,0,0
854,대구광역시,흥구석유㈜ 현풍고속주유소,대구 달성군 현풍읍 국가산단북로,GS칼텍스,053-614-5189,Y,0,1668,1798,1700,35.6682179,128.4405127
855,대구광역시,우리최고주유소,대구 달성군 화원읍 사문진로,S-OIL,053-642-5182,Y,0,1669,1775,1550,35.8075376,128.4886264
856,대구광역시,세천주유소,대구 달성군 다사읍 세천북로,S-OIL,053-585-0671,Y,0,1669,1789,1650,35.87698,128.4710859
857,대구광역시,다사왕선주유소,대구 달성군 다사읍 다사로,GS칼텍스,053-591-0368,Y,0,1669,1789,1600,35.885106,128.50292
858,대구광역시,(주)조광주유소,대구 달성군 다사읍 세천로,GS칼텍스,053-584-8996,Y,0,1669,1789,1700,35.8738805,128.4745222
859,대구광역시,원 주유소,대구 달성군 현풍읍 국가산단북로,GS칼텍스,053-614-8999,Y,0,1669,1799,0,35.6682179,128.4405127
860,대구광역시,논공공단주유소,대구 달성군 논공읍 비슬로,알뜰주유소,053-615-5005,N,0,1675,1795,1600,35.7555631,128.399532
861,대구광역시,화원유원지주유소,대구 달성군 화원읍 사문진로,현대오일뱅크,053-635-4287,Y,0,1675,1775,0,35.8075376,128.4886264
862,대구광역시,국민주유소,대구 달성군 화원읍 사문진로,SK에너지,053-636-7001,Y,0,1675,1775,1570,35.8075376,128.4886264
863,대구광역시,달성보주유소,대구 달성군 논공읍 비슬로,S-OIL,053-614-5842,N,0,1678,1798,0,35.7555631,128.399532
864,대구광역시,현풍농협주유소,대구 달성군 현풍면 테크노북로,NH-OIL,053-614-0995,N,0,1678,1798,1600,0,0
865,대구광역시,(주)테크노주유소,대구 달성군 유가면 테크노순환로,S-OIL,053-614-1152,N,0,1679,1799,0,0,0
866,대구광역시,하빈농협 클린주유소,대구 달성군 하빈면 하빈로,NH-OIL,053-582-6619,N,0,1689,1799,1600,35.8961511,128.4326163
867,대구광역시,경인주유소,대구 달성군 논공읍 논공로,GS칼텍스,053-623-5547,N,0,1695,1815,0,35.7164589,128.4470674
868,대구광역시,참빛주유소,대구 달성군 논공읍 논공로,현대오일뱅크,053-617-2468,N,0,1698,1818,0,35.7164589,128.4470674
869,대구광역시,(주)캘리스코 논공(광주)휴게소점,대구 달성군 논공읍 광주대구고속도로,알뜰(ex),070-4304-0610,Y,0,1698,1869,0,35.7696651,128.4167628
870,대구광역시,(주)캘리스코 논공(대구)휴게소점주유소/충전소,대구 달성군 논공읍 광주대구고속도로,알뜰(ex),070-4304-0630,Y,0,1698,1869,0,35.7696651,128.4167628
871,대구광역시,동화주유소,대구 달성군 현풍읍 국가산단북로,GS칼텍스,053-614-2300,N,0,1698,1838,1700,35.6682179,128.4405127
872,대구광역시,구지주유소,대구 달성군 현풍면 국가산단북로,S-OIL,053-614-2700,N,1998,1708,1818,1700,0,0
873,대구광역시,솔례주유소,대구 달성군 현풍면 과학북로,S-OIL,053-611-5155,N,0,1708,1818,1700,0,0
874,대구광역시,봄봄봄주유소/충전소,대구 달성군 구지면 달성 차로,현대오일뱅크,053-615-5188,N,0,1708,1818,1700,0,0
875,대구광역시,성진주유소,대구 달성군 구지면 국가산단남로,S-OIL,053-617-4848,Y,0,1718,1838,0,35.6392863,128.4482608
876,대구광역시,하빈대교주유소,대구 달성군 하빈면 하빈남로,GS칼텍스,053-584-3304,N,0,1719,1839,1600,35.8672056,128.4142764
877,대구광역시,대동주유소,대구 달성군 현풍면 과학북로,SK에너지,053-614-1240,N,0,1728,1828,0,0,0
878,대구광역시,가람주유소,대구 달성군 현풍면 비슬로,S-OIL,053-616-5182,N,0,1728,1828,1650,0,0
879,대구광역시,용마주유소,대구 달성군 가창면 가창로,S-OIL,053-767-5333,N,0,1738,1838,1650,35.7691196,128.6482893
880,대구광역시,흥구석유(주)달성공단주유소,대구 달성군 논공읍 논공중앙로  길,GS칼텍스,053-614-1452,N,0,1738,1858,1700,0,0
881,대구광역시,한정주유소,대구 달성군 구지면 비슬로,GS칼텍스,053-615-5522,N,0,1738,1858,1700,35.6417939,128.4516207
882,대구광역시,포산주유소,대구 달성군 현풍면 비슬로,S-OIL,053-617-8582,N,0,1738,1858,1650,0,0
883,대구광역시,달성주유소,대구광역시 달성군 현풍면 논공로,S-OIL,053-616-7770,Y,0,1758,1878,0,0,0
884,대구광역시,현풍하이패스주유소,대구 달성군 현풍면 비슬로,S-OIL,053-616-5188,N,0,1759,1859,1650,0,0
885,대구광역시,홍토주유소/충전소,대구 달성군 논공읍 비슬로,SK에너지,053-616-3800,N,0,1798,1898,1700,35.7555631,128.399532
886,대구광역시,그린에너지프라자주유소/충전소,대구 달성군 논공읍 비슬로,SK에너지,053-616-8008,N,0,0,1849,0,35.7555631,128.399532
887,대구광역시,(주)미니에너지 직영주유소,대구 동구 화랑로    ,알뜰주유소,053-963-0051,Y,1879,1589,1748,0,35.8760334,128.6573903
888,대구광역시,삼원주유소,대구 동구 공항로,SK에너지,053-982-5154,Y,0,1599,1758,1470,35.9007796,128.6335475
889,대구광역시,팔공산IC주유소,대구 동구 공항로,S-OIL,053-982-0934,N,0,1604,1763,1550,35.9007796,128.6335475
890,대구광역시,국제주유소,대구 동구 팔공로,SK에너지,053-986-5153,Y,0,1609,1768,1500,35.9070043,128.6405238
891,대구광역시,현대오일뱅크(주)직영 대구공항셀프주유소,대구 동구 공항로,현대오일뱅크,053-984-6555,Y,1994,1609,1763,1600,35.9007796,128.6335475
892,대구광역시,팔공김치주유소,대구 동구 동촌로      ,S-OIL,053-983-8713,Y,0,1609,1785,0,35.876314,128.6814797
893,대구광역시,동대구터미널주유소,대구 동구 화랑로    ,S-OIL,053-965-5759,N,0,1610,1770,0,35.8760334,128.6573903
894,대구광역시,동대구주유소,대구 동구 안심로    ,알뜰주유소,053-961-8998,Y,0,1610,1759,0,35.87027,128.69232
895,대구광역시,동대구고속주유소,대구 동구 동촌로    ,SK에너지,053-984-9991,N,0,1614,1764,0,35.876314,128.6814797
896,대구광역시,국가대표제2주유소,대구 동구 화랑로    ,SK에너지,053-986-5100,Y,0,1615,1765,1600,35.8760334,128.6573903
897,대구광역시,효동로주유소,대구광역시 동구 효동로,SK에너지,053-944-4567,N,0,1625,1785,0,35.8823614,128.6450122
898,대구광역시,대원주유소,대구 동구 효동로   ,GS칼텍스,053-942-5000,N,0,1625,1785,1500,35.8823614,128.6450122
899,대구광역시,동북주유소,대구 동구 파계로,현대오일뱅크,053-981-6332,N,0,1629,1779,1480,35.9372539,128.6410176
900,대구광역시,응답하라8051주유소,대구 동구  파계로    ,SK에너지,000-000-0000,Y,0,1629,1779,1600,35.9372539,128.6410176
901,대구광역시,만남주유소,대구 동구 파계로    ,S-OIL,053-985-1112,Y,0,1629,1779,1500,35.9372539,128.6410176
902,대구광역시,현대오일뱅크㈜직영 동진주유소,대구 동구 동촌로,현대오일뱅크,053-984-7700,N,0,1634,1789,1600,35.876314,128.6814797
903,대구광역시,영진주유소,대구 동구 동촌로   ,S-OIL,053-218-4476,Y,0,1635,1785,0,35.876314,128.6814797
904,대구광역시,대성산업(주)강촌대성주유소,대구 동구  화랑로    ,GS칼텍스,053-985-4222,Y,0,1635,1775,1700,35.8760334,128.6573903
905,대구광역시,일호self주유소,대구 동구 화랑로,SK에너지,053-754-1515,Y,0,1635,1785,0,35.8760334,128.6573903
906,대구광역시,미니주유소,대구 동구 해동로    ,S-OIL,053-981-2807,N,0,1635,1785,1590,35.8887194,128.6447463
907,대구광역시,우성주유소,대구 동구 안심로    ,현대오일뱅크,053-962-8989,N,0,1639,1789,1600,35.87027,128.69232
908,대구광역시,방촌주유소,대구 동구 동촌로    ,S-OIL,053-985-5599,N,0,1645,1785,0,35.876314,128.6814797
909,대구광역시,SK동호주유소,대구 동구 안심로    ,SK에너지,053-964-0066,N,0,1655,1805,0,35.87027,128.69232
910,대구광역시,대한주유소,대구 동구 팔공로    ,S-OIL,053-984-5551,Y,0,1658,1788,1550,35.9070043,128.6405238
911,대구광역시,반야월주유소,대구 동구 반야월로    ,S-OIL,053-962-0120,N,1995,1659,1795,0,35.8720368,128.7159352
912,대구광역시,지에스칼텍스(주)대구혁신도시주유소,대구 동구 혁신대로    ,GS칼텍스,053-963-9160,Y,1889,1659,1769,1650,35.8771568,128.7181598
913,대구광역시,글로벌 제2주유소,대구 동구 팔공로    ,GS칼텍스,053-651-6400,Y,2179,1659,1779,0,35.9070043,128.6405238
914,대구광역시,(주)HC대하에너지 해안주유소,대구 동구 팔공로    ,S-OIL,053-985-6001,Y,0,1668,1798,1650,35.9070043,128.6405238
915,대구광역시,두바이주유소,대구 동구 안심로    ,GS칼텍스,053-963-5104,Y,0,1668,1798,0,35.87027,128.69232
916,대구광역시,한대동부주유소,대구 동구 동촌로    ,GS칼텍스,053-964-2211,N,1983,1668,1798,1600,35.876314,128.6814797
917,대구광역시,송정주유소,대구 동구 안심로,현대오일뱅크,053-965-3666,N,0,1669,1839,1600,35.87027,128.69232
918,대구광역시,(주)남해토탈 본점주유소,대구 동구 동촌로      ,현대오일뱅크,053-981-8574,Y,0,1670,1795,1650,35.876314,128.6814797
919,대구광역시,동화주유소,대구 동구 팔공산로,SK에너지,053-983-5181,Y,0,1679,1799,1650,35.9816887,128.6979577
920,대구광역시,지성주유소,대구광역시 동구  동촌로    ,S-OIL,053-985-7706,N,0,1685,1805,0,35.876314,128.6814797
921,대구광역시,계명Ⅱ주유소,대구 동구 이노밸리로,S-OIL,053-965-5152,N,0,1696,1827,0,35.8783197,128.7263048
922,대구광역시,신암로주유소(금강개발대구지점),대구 동구 신암로    ,S-OIL,053-953-5144,N,0,1698,1838,1700,35.8774839,128.6071275
923,대구광역시,극동주유소,대구 동구 동부로   ,S-OIL,053-752-2220,Y,1898,1698,1838,1700,35.8777874,128.631558
924,대구광역시,(주)서재홍주유소,대구 동구 혁신대로     ,S-OIL,053-961-7241,Y,0,1698,1798,1650,35.8771568,128.7181598
925,대구광역시,효목주유소,대구 동구 동부로    ,GS칼텍스,053-745-3900,N,0,1698,1829,1600,35.8777874,128.631558
926,대구광역시,(주)에스제이에너지,대구 동구 공항로    ,GS칼텍스,053-984-5500,Y,1999,1699,1839,0,35.9007796,128.6335475
927,대구광역시,대원석유(주)직영대신,대구 동구 안심로    ,SK에너지,053-963-2229,N,1969,1699,1819,1550,35.87027,128.69232
928,대구광역시,e편한주유소,대구 동구 경대로   ,S-OIL,053-954-3200,Y,0,1699,1839,1650,35.883225,128.6128461
929,대구광역시,덕산주유소,대구 동구  팔공산로    ,S-OIL,053-981-5158,N,0,1739,1869,1600,35.9816887,128.6979577
930,대구광역시,흥구석유(주)안심주유소,대구 동구 안심로    ,GS칼텍스,053-962-5052,N,0,1745,1845,0,35.87027,128.69232
931,대구광역시,백두산주유소,대구 동구 공항로    ,S-OIL,053-981-8484,N,0,1759,1846,1750,35.9007796,128.6335475
932,대구광역시,율하주유소,대구 동구 반야월로    ,S-OIL,053-962-0317,N,2238,1776,1890,1680,35.8720368,128.7159352
933,대구광역시,동원주유소,대구 동구 팔공로    ,GS칼텍스,053-983-1222,N,0,1798,1898,1700,35.9070043,128.6405238
934,대구광역시,문화주유소,대구 동구 동부로  길   ,GS칼텍스,053-751-2550,N,0,1898,1998,1700,0,0
935,대구광역시,동도주유소,대구 동구 용계동 안심로,S-OIL,053-965-9605,N,0,1986,1996,0,35.87027,128.69232
936,대구광역시,미니주유소,대구 북구 침산남로    ,알뜰주유소,053-253-5150,Y,0,1585,1744,0,35.8864111,128.600179
937,대구광역시,동로주유소,대구 북구 신천동로     ,알뜰주유소,053-954-4801,Y,0,1590,1749,0,35.8981377,128.5931093
938,대구광역시,한영주유소,대구 북구 공항로   ,알뜰주유소,053-382-5182,N,0,1597,1757,0,35.89871,128.62027
939,대구광역시,대망주유소,대구 북구 중앙대로    ,현대오일뱅크,053-353-5182,Y,1958,1598,1758,0,35.8888134,128.5985941
940,대구광역시,천지주유소,대구 북구 사수로,알뜰주유소,000-000-0000,Y,0,1599,1759,0,35.8947632,128.5167812
941,대구광역시,화성제2주유소,대구 북구 사수로,S-OIL,053-323-5155,N,0,1599,1755,0,35.8947632,128.5167812
942,대구광역시,현대오일뱅크(주)직영 금호셀프주유소,대구 북구 사수로,현대오일뱅크,053-312-7667,Y,1987,1599,1759,1600,35.8947632,128.5167812
943,대구광역시,대일종합에너지주유소 태전점,대구 북구 태전로   ,현대오일뱅크,053-295-8251,N,0,1605,1745,0,35.9298032,128.5354648
944,대구광역시,(주)금강주유소,대구 북구 대학로   ,현대오일뱅크,053-955-5189,Y,0,1608,1758,0,35.8880051,128.6020474
945,대구광역시,무지개주유소,대구 북구 연암로    ,알뜰주유소,053-384-5104,Y,0,1609,1774,0,35.8862734,128.6024488
946,대구광역시,태왕주유소,대구 북구 동북로  ,현대오일뱅크,053-384-4431,Y,1875,1613,1774,0,35.8953929,128.6177875
947,대구광역시,덕영주유소,대구 북구 매천로    ,S-OIL,053-314-0051,N,0,1615,1749,1550,35.9190883,128.5415993
948,대구광역시,칠곡제일주유소,대구 북구 구리로    ,알뜰주유소,053-321-0082,N,0,1615,1765,0,35.9460683,128.5569618
949,대구광역시,아스트로주유소,대구 북구 팔달로    ,GS칼텍스,053-351-8500,Y,0,1615,1765,1600,35.8897805,128.5619394
950,대구광역시,구도일주유소대구,대구 북구 매천로    ,S-OIL,000-000-0000,Y,0,1616,1750,1600,35.9190883,128.5415993
951,대구광역시,미희주유소,대구 북구 칠곡중앙대로    ,현대오일뱅크,000-000-0000,Y,0,1616,1750,1650,35.9190182,128.5473141
952,대구광역시,기분좋은셀프주유소,대구 북구 칠곡중앙대로    ,현대오일뱅크,053-314-8816,Y,0,1619,1749,1559,35.9190182,128.5473141
953,대구광역시,패밀리주유소,대구 북구 칠곡중앙대로,GS칼텍스,053-311-5155,Y,0,1619,1749,0,35.9190182,128.5473141
954,대구광역시,스마트셀프주유소,대구 북구 칠곡중앙대로    ,SK에너지,053-311-5191,Y,0,1619,1749,0,35.9190182,128.5473141
955,대구광역시,산동주유소,대구 북구 노원로   ,SK에너지,053-358-2381,Y,0,1619,1759,0,35.8897073,128.5623843
956,대구광역시,(주)HC대하에너지 보광주유소,대구 북구 칠곡중앙대로,S-OIL,053-327-2373,Y,1998,1619,1749,0,35.9190182,128.5473141
957,대구광역시,선진주유소,대구 북구 연암로    ,SK에너지,053-955-6647,Y,0,1623,1798,1550,35.8862734,128.6024488
958,대구광역시,KK(주) 침산주유소,대구 북구 노원로    ,SK에너지,053-352-7272,Y,0,1625,1849,0,35.8897073,128.5623843
959,대구광역시,복현셀프주유소,대구 북구 동북로,S-OIL,053-952-0919,Y,0,1628,1775,0,35.8953929,128.6177875
960,대구광역시,sk동천주유소,대구광역시 북구  팔거천동로    ,SK에너지,053-313-0413,Y,0,1629,1779,0,35.9441878,128.5584584
961,대구광역시,(주)북대구IC주유소,대구 북구 동북로    ,S-OIL,053-381-0030,Y,1895,1629,1775,0,35.8953929,128.6177875
962,대구광역시,운암지주유소,대구 북구 구암로    ,S-OIL,053-324-8851,Y,0,1629,1769,0,35.9448731,128.5756839
963,대구광역시,동서변주유소,대구 북구 호국로,알뜰주유소,053-951-5141,Y,0,1629,1774,0,35.9581896,128.5656112
964,대구광역시,신흥주유소,대구 북구 동북로,SK에너지,053-263-0811,Y,0,1629,1775,0,35.8953929,128.6177875
965,대구광역시,지에스칼텍스㈜ 삼광주유소,대구 북구 칠곡중앙대로,GS칼텍스,053-314-2500,Y,1859,1629,1749,1650,35.9190182,128.5473141
966,대구광역시,흥구석유(주) 산격주유소,대구 북구 동북로   ,GS칼텍스,053-381-3950,N,2045,1629,1775,1600,35.8953929,128.6177875
967,대구광역시,중앙주유소,대구 북구 동북로    ,현대오일뱅크,053-283-5060,Y,1895,1629,1775,0,35.8953929,128.6177875
968,대구광역시,해바라기self주유소,대구 북구 대현로,SK에너지,053-941-4289,Y,0,1635,1785,0,35.88504,128.6045597
969,대구광역시,SK에너지(주) 거산주유소,대구 북구 호국로    ,SK에너지,053-955-5185,Y,0,1639,1769,1650,35.9581896,128.5656112
970,대구광역시,SK에너지(주) 맘모스주유소,대구 북구 동북로   ,SK에너지,053-381-6051,Y,0,1639,1779,1600,35.8953929,128.6177875
971,대구광역시,SG주유소,대구 북구 산격로   ,GS칼텍스,053-341-4500,N,0,1640,1755,1650,35.8906598,128.6052279
972,대구광역시,(주)HC대하에너지 연경주유소,대구 북구 동화천로,S-OIL,053-985-8051,Y,0,1648,1778,0,35.9416163,128.6205652
973,대구광역시,까치주유소,대구 북구 호국로    ,GS칼텍스,053-943-0035,Y,0,1648,1778,1680,35.9581896,128.5656112
974,대구광역시,대구주선합동터미널,대구 북구 서재로,현대오일뱅크,053-314-5158,N,0,1649,1789,0,35.8868554,128.5292656
975,대구광역시,지에스칼텍스㈜ 구암주유소,대구 북구 구암로,GS칼텍스,053-321-5185,Y,1905,1655,1769,0,35.9448731,128.5756839
976,대구광역시,SK에너지(주) 칠곡IC주유소,대구 북구 관음로    ,SK에너지,053-322-4411,N,1898,1659,1779,1650,35.9423066,128.5424238
977,대구광역시,대성산업(주)복현대성주유소,대구 북구 검단로   ,GS칼텍스,053-383-5150,Y,1969,1659,1809,0,35.8988978,128.6152473
978,대구광역시,오일월드주유소,대구 북구 칠곡중앙대로   ,GS칼텍스,053-325-0051,Y,1885,1659,1779,1600,35.9190182,128.5473141
979,대구광역시,대성산업(주)대성주유소,대구 북구 칠성로 길,GS칼텍스,053-358-7922,Y,1957,1665,1789,0,0,0
980,대구광역시,강남고속주유소,대구 북구 노원로    ,SK에너지,053-355-6115,N,0,1669,1839,1650,35.8897073,128.5623843
981,대구광역시,강북주유소,대구 북구 호국로    ,S-OIL,053-325-3131,Y,0,1669,1799,0,35.9581896,128.5656112
982,대구광역시,학정주유소,대구광역시 북구  학정동로   ,GS칼텍스,053-312-5166,Y,0,1669,1799,1700,35.9481097,128.5684051
983,대구광역시,현대오일뱅크 칠곡주유소,대구 북구 칠곡중앙대로,현대오일뱅크,053-324-0414,N,0,1669,1826,1600,35.9190182,128.5473141
984,대구광역시,대기주유소,대구 북구 팔달로   ,현대오일뱅크,053-214-4800,N,0,1675,1795,0,35.8897805,128.5619394
985,대구광역시,오페라주유소,대구 북구 중앙대로    ,GS칼텍스,053-424-2524,Y,1957,1678,1838,0,35.8888134,128.5985941
986,대구광역시,육일주유소,대구 북구 호국로    ,현대오일뱅크,053-325-6151,Y,0,1679,1819,1700,35.9581896,128.5656112
987,대구광역시,한국광유(주) 칠곡매천주유소,대구 북구 매천로    ,SK에너지,053-313-1810,N,0,1688,1799,1600,35.9190883,128.5415993
988,대구광역시,소원주유소,대구 북구 칠곡중앙대로,GS칼텍스,053-322-0011,N,0,1688,1829,0,35.9190182,128.5473141
989,대구광역시,삼공단주유소,대구 북구 노원로    ,S-OIL,053-357-8714,N,0,1699,1839,1650,35.8897073,128.5623843
990,대구광역시,노원셀프주유소,대구 북구 노원로   ,SK에너지,053-356-5151,N,0,1699,1839,0,35.8897073,128.5623843
991,대구광역시,공명주유소,대구 북구 침산남로   ,GS칼텍스,053-341-0051,Y,0,1699,1839,1600,35.8864111,128.600179
992,대구광역시,현대오일뱅크(주) 유통단지주유소,대구 북구 검단로   ,현대오일뱅크,053-381-6562,N,2098,1699,1829,1600,35.8988978,128.6152473
993,대구광역시,현대오일뱅크 대구현대,대구 북구 유통단지로  길   ,현대오일뱅크,053-383-0051,N,0,1699,1829,1600,0,0
994,대구광역시,에코주유소,대구 북구 노원로,GS칼텍스,053-353-0505,N,0,1699,1839,0,35.8897073,128.5623843
995,대구광역시,이(e)편한주유소,대구 북구 노원로  ,S-OIL,053-351-4500,Y,0,1699,1839,1650,35.8897073,128.5623843
996,대구광역시,대현주유소,대구 북구 대학로   ,현대오일뱅크,053-956-6370,N,0,1749,1849,1600,35.8880051,128.6020474
997,대구광역시,흥구석유(주)원대주유소,대구 북구 팔달로,GS칼텍스,053-357-8220,N,0,1759,1859,1600,35.8897805,128.5619394
998,대구광역시,영신제2주유소,대구 서구 서대구로    ,알뜰주유소,053-553-5511,Y,0,1593,1745,0,35.8751011,128.5555314
999,대구광역시,영신주유소,대구 서구 서대구로    ,알뜰주유소,053-555-7450,Y,0,1594,1728,0,35.8751011,128.5555314
1000,대구광역시,신광주유소,대구 서구 와룡로    ,SK에너지,053-567-4771,Y,0,1594,1745,1499,35.8736351,128.5387904
1001,대구광역시,서대구주유소,대구 서구 북비산로,GS칼텍스,053-525-7277,Y,0,1598,1758,0,35.8791473,128.559128
1002,대구광역시,평리주유소,대구 서구 서대구로    ,현대오일뱅크,053-526-2828,Y,0,1598,1750,0,35.8751011,128.5555314
1003,대구광역시,광명주유소,대구광역시 서구  서대구로    ,GS칼텍스,053-555-5563,N,0,1598,1818,1650,35.8751011,128.5555314
1004,대구광역시,나혜주유소,대구 서구 서대구로,SK에너지,053-341-4500,Y,0,1599,1733,1690,35.8751011,128.5555314
1005,대구광역시,행복주유소,대구 서구 국채보상로    ,현대오일뱅크,053-571-8251,N,0,1599,1749,0,35.8684927,128.5336388
1006,대구광역시,브라보주유소,대구 서구 북비산로,GS칼텍스,053-551-8851,Y,0,1619,1759,0,35.8791473,128.559128
1007,대구광역시,미리내주유소,대구 서구 새방로    ,현대오일뱅크,053-566-5182,N,0,1619,1774,0,35.870347,128.5305004
1008,대구광역시,행복제1주유소,대구 서구 고성로    ,S-OIL,053-356-1951,Y,0,1625,1775,1650,35.8823229,128.5779715
1009,대구광역시,대영셀프주유소,대구 서구 팔달로   ,S-OIL,053-357-0089,Y,0,1625,1775,1600,35.890631,128.55532
1010,대구광역시,아름다운주유소,대구 서구 달서로   ,SK에너지,053-557-0900,Y,0,1629,1775,1600,35.8860108,128.5745264
1011,대구광역시,달서주유소,대구 서구 달서천로    ,S-OIL,053-352-4001,N,0,1629,1789,0,35.8837448,128.5361378
1012,대구광역시,이현공단주유소,대구 서구 국채보상로    ,GS칼텍스,053-565-0889,Y,0,1629,1783,0,35.8684927,128.5336388
1013,대구광역시,꽉 주유소,대구 서구 국채보상로    ,S-OIL,053-565-5186,Y,0,1629,1785,0,35.8684927,128.5336388
1014,대구광역시,태양주유소,대구 서구 국채보상로,현대오일뱅크,053-573-8303,Y,1945,1629,1775,1650,35.8684927,128.5336388
1015,대구광역시,화성제일주유소,대구 서구 국채보상로,SK에너지,053-523-5100,Y,0,1629,1775,1650,35.8684927,128.5336388
1016,대구광역시,채움셀프주유소,대구 서구 달구벌대로     ,SK에너지,053-526-5558,Y,0,1629,1799,0,35.858762,128.5598976
1017,대구광역시,지에스칼텍스(주)달구벌대로주유소,대구 서구 달구벌대로,GS칼텍스,053-556-5151,Y,1895,1629,1755,0,35.858762,128.5598976
1018,대구광역시,(주)세아에너지,대구 서구 서대구로    ,S-OIL,053-551-8113,Y,0,1635,1745,0,35.8751011,128.5555314
1019,대구광역시,천만에너지,대구 서구 북비산로    ,현대오일뱅크,053-566-7409,N,0,1639,1769,0,35.8791473,128.559128
1020,대구광역시,이현IC주유소,대구 서구 북비산로    ,S-OIL,053-564-1112,N,1899,1649,1799,0,35.8791473,128.559128
1021,대구광역시,지에스칼텍스(주)한국제2주유소,대구 서구 북비산로    ,GS칼텍스,053-562-3332,Y,0,1649,1765,0,35.8791473,128.559128
1022,대구광역시,서대구IC주유소,대구 서구 북비산로   ,SK에너지,053-566-0009,Y,0,1659,1787,1650,35.8791473,128.559128
1023,대구광역시,기분좋은주유소,대구 서구 와룡로    ,GS칼텍스,053-563-2222,Y,2035,1667,1797,0,35.8736351,128.5387904
1024,대구광역시,새방골주유소,대구 서구 국채보상로   ,SK에너지,053-573-5511,N,0,1668,1828,0,35.8684927,128.5336388
1025,대구광역시,서대구터미널주유소,대구 서구 북비산로   ,S-OIL,053-527-5151,N,0,1668,1798,1690,35.8791473,128.559128
1026,대구광역시,고려주유소,대구 서구 국채보상로   ,SK에너지,053-524-5182,N,0,1668,1828,1680,35.8684927,128.5336388
1027,대구광역시,명조주유소,대구 서구 평리로    ,S-OIL,053-555-6688,N,0,1677,1807,0,35.8615595,128.5470608
1028,대구광역시,태화주유소,대구 서구 평리로    ,현대오일뱅크,053-566-1778,N,0,1677,1797,0,35.8615595,128.5470608
1029,대구광역시,평리동양주유소,대구 서구 북비산로    ,SK에너지,053-525-5995,Y,0,1679,1799,0,35.8791473,128.559128
1030,대구광역시,조광주유소,대구 서구 북비산로,GS칼텍스,053-567-2533,N,0,1698,1818,0,35.8791473,128.559128
1031,대구광역시,대원석유(주)이현대원주유소,대구 서구 북비산로    ,SK에너지,053-525-5182,N,0,1699,1819,0,35.8791473,128.559128
1032,대구광역시,e편한주유소,대구 서구 평리로    ,SK에너지,053-556-9942,Y,0,1729,1839,1650,35.8615595,128.5470608
1033,대구광역시,합천주유소,대구 서구 염색공단천로   ,SK에너지,053-356-1010,N,0,1789,1889,1650,35.88949,128.54549
1034,대구광역시,서대구공단주유소,대구 서구 와룡로,GS칼텍스,053-568-0051,N,0,1995,2095,0,35.8736351,128.5387904
1035,대구광역시,기분좋은주유소,대구 수성구 희망로      ,GS칼텍스,053-761-6051,N,0,1614,1774,0,35.8467521,128.6167824
1036,대구광역시,그린주유소,대구 수성구  달구벌대로     ,알뜰주유소,053-792-0891,Y,0,1615,1775,0,35.8354755,128.721367
1037,대구광역시,문화주유소,대구 수성구 청호로   ,알뜰주유소,053-782-3300,Y,0,1615,1775,0,35.85672,128.64232
1038,대구광역시,한결주유소,대구 수성구 지범로,S-OIL,053-783-6886,Y,0,1625,1775,0,35.8224283,128.6376842
1039,대구광역시,노변주유소,대구 수성구 달구벌대로,SK에너지,053-791-5493,Y,2030,1625,1795,1730,35.8354755,128.721367
1040,대구광역시,흥구석유(주)동신주유소,대구 수성구 청수로,GS칼텍스,053-768-8383,Y,0,1625,1775,0,35.8407376,128.6350889
1041,대구광역시,대성산업(주) 대경주유소,대구 수성구 달구벌대로     ,GS칼텍스,053-792-0612,Y,2020,1625,1785,0,35.8354755,128.721367
1042,대구광역시,태산이앤엘(주)수성셀프주유소,대구 수성구  달구벌대로     ,현대오일뱅크,053-247-0051,Y,0,1625,1775,0,35.8354755,128.721367
1043,대구광역시,태영주유소,대구 수성구 국채보상로    ,현대오일뱅크,010-3529-6200,Y,0,1629,1779,0,35.8680031,128.6158381
1044,대구광역시,대한주유소,대구 수성구 달구벌대로     ,S-OIL,053-795-0088,N,0,1635,1795,0,35.8354755,128.721367
1045,대구광역시,지에스칼텍스(주) 황금기름창고주유소,대구 수성구 청수로   ,GS칼텍스,053-766-5151,Y,1955,1635,1799,0,35.8407376,128.6350889
1046,대구광역시,하나주유소,대구 수성구 달구벌대로     ,S-OIL,053-794-9330,N,0,1635,1795,0,35.8354755,128.721367
1047,대구광역시,메트로팔레스주유소,대구 수성구 화랑로   ,현대오일뱅크,053-755-8833,Y,0,1635,1785,0,35.8763449,128.6540857
1048,대구광역시,지에스칼텍스(주)황금캐슬주유소,대구 수성구 청수로    ,GS칼텍스,053-765-7100,Y,1945,1635,1799,0,35.8407376,128.6350889
1049,대구광역시,수성현대셀프주유소,대구 수성구 동대구로   ,현대오일뱅크,053-767-5142,Y,1965,1635,1785,0,35.8665268,128.6267468
1050,대구광역시,흥구석유(주)만촌주유소,대구 수성구 화랑로    ,GS칼텍스,053-743-3514,Y,1879,1635,1785,0,35.8763449,128.6540857
1051,대구광역시,수성착한주유소,대구 수성구 신천동로,GS칼텍스,053-768-5100,Y,1965,1635,1795,0,35.8356266,128.6068372
1052,대구광역시,구도일주유소 무열로,대구 수성구 무열로    ,S-OIL,053-754-5915,N,1899,1639,1799,0,35.8749213,128.6460912
1053,대구광역시,사랑가득주유소,대구 수성구 동대구로    ,GS칼텍스,053-767-1010,Y,1999,1639,1799,1750,35.8665268,128.6267468
1054,대구광역시,지에스칼텍스㈜삼보주유소,대구 수성구 무학로   ,GS칼텍스,053-764-3551,Y,1969,1639,1789,0,35.8298107,128.6206544
